$GPGGA,145412.000,4853.6252,N,00223.3765,E,1,09,1.0,92.3,M,,,,0000*35
$GPGSA,A,3,11,20,04,13,31,25,24,01,23,,,,1.8,1.0,1.5*39
$GPRMC,145412.000,A,4853.6252,N,00223.3765,E,0.07,134.43,220885,,*0A
$GPGGA,145413.000,4853.6252,N,00223.3765,E,1,09,1.0,92.3,M,,,,0000*34
$GPGSA,A,3,11,20,04,13,31,25,24,01,23,,,,1.8,1.0,1.5*39
$GPGSV,3,1,09,24,75,285,44,20,68,062,45,23,64,177,44,13,35,203,38*7C
$GPGSV,3,2,09,31,31,228,44,04,30,304,43,11,29,143,44,25,22,052,40*77
$GPGSV,3,3,09,01,18,045,40*4D
$GPRMC,145413.000,A,4853.6252,N,00223.3765,E,0.08,145.02,220885,,*07
$GPGGA,145414.000,4853.6252,N,00223.3765,E,1,09,1.0,92.3,M,,,,0000*33
$GPGSA,A,3,11,20,04,13,31,25,24,01,23,,,,1.8,1.0,1.5*39
$GPRMC,145414.000,A,4853.6252,N,00223.3765,E,0.07,138.21,220885,,*04
$GPGGA,145415.000,4853.6252,N,00223.3765,E,1,09,1.0,92.3,M,,,,0000*32
$GPGSA,A,3,11,20,04,13,31,25,24,01,23,,,,1.8,1.0,1.5*39
$GPRMC,145415.000,A,4853.6252,N,00223.3765,E,0.08,142.91,220885,,*0C
$GPGGA,145416.000,4853.6251,N,00223.3764,E,1,09,1.0,92.3,M,,,,0000*33
$GPGSA,A,3,11,20,04,13,31,25,24,01,23,,,,1.8,1.0,1.5*39
$GPRMC,145416.000,A,4853.6251,N,00223.3764,E,0.07,148.63,220885,,*05
$GPGGA,145417.000,4853.6251,N,00223.3764,E,1,09,1.0,92.3,M,,,,0000*32
$GPGSA,A,3,11,20,04,13,31,25,24,01,23,,,,1.8,1.0,1.5*39
$GPRMC,145417.000,A,4853.6251,N,00223.3764,E,0.08,147.34,220885,,*06
$GPGGA,145418.000,4853.6251,N,00223.3764,E,1,09,1.0,92.3,M,,,,0000*3D
$GPGSA,A,3,11,20,04,13,31,25,24,01,23,,,,1.8,1.0,1.5*39
$GPGSV,3,1,09,24,75,285,44,20,68,062,45,23,64,177,44,13,35,203,38*7C
$GPGSV,3,2,09,31,31,228,44,04,30,304,43,11,29,143,44,25,22,052,40*77
$GPGSV,3,3,09,01,18,045,40*4D
$GPRMC,145418.000,A,4853.6251,N,00223.3764,E,0.07,148.99,220885,,*0E
$GPGGA,145419.000,4853.6251,N,00223.3764,E,1,09,1.0,92.3,M,,,,0000*3C
$GPGSA,A,3,11,20,04,13,31,25,24,01,23,,,,1.8,1.0,1.5*39
$GPRMC,145419.000,A,4853.6251,N,00223.3764,E,0.08,139.28,220885,,*0C
$GPGGA,145420.000,4853.6251,N,00223.3764,E,1,09,1.0,92.3,M,,,,0000*36
$GPGSA,A,3,11,20,04,13,31,25,24,01,23,,,,1.8,1.0,1.5*39
$GPRMC,145420.000,A,4853.6251,N,00223.3764,E,0.08,145.54,220885,,*06
$GPGGA,145421.000,4853.6251,N,00223.3764,E,1,09,1.0,92.3,M,,,,0000*37
$GPGSA,A,3,11,20,04,13,31,25,24,01,23,,,,1.8,1.0,1.5*39
$GPRMC,145421.000,A,4853.6251,N,00223.3764,E,0.07,146.35,220885,,*0C
$GPGGA,145422.000,4853.6251,N,00223.3764,E,1,09,1.0,92.3,M,,,,0000*34
$GPGSA,A,3,11,20,04,13,31,25,24,01,23,,,,1.8,1.0,1.5*39
$GPRMC,145422.000,A,4853.6251,N,00223.3764,E,0.07,149.79,220885,,*08
$GPGGA,145423.000,4853.6251,N,00223.3764,E,1,09,1.0,92.3,M,,,,0000*35
$GPGSA,A,3,11,20,04,13,31,25,24,01,23,,,,1.8,1.0,1.5*39
$GPGSV,3,1,09,24,75,285,44,20,68,062,45,23,64,177,44,13,35,203,38*7C
$GPGSV,3,2,09,31,31,228,44,04,30,304,43,11,29,143,44,25,22,052,40*77
$GPGSV,3,3,09,01,18,045,40*4D
$GPRMC,145423.000,A,4853.6251,N,00223.3764,E,0.08,143.04,220885,,*06
$GPGGA,145424.000,4853.6251,N,00223.3764,E,1,09,1.0,92.3,M,,,,0000*32
$GPGSA,A,3,11,20,04,13,31,25,24,01,23,,,,1.8,1.0,1.5*39
$GPRMC,145424.000,A,4853.6251,N,00223.3764,E,0.07,146.74,220885,,*0C
$GPGGA,145425.000,4853.6251,N,00223.3764,E,1,09,1.0,92.3,M,,,,0000*33
$GPGSA,A,3,11,20,04,13,31,25,24,01,23,,,,1.8,1.0,1.5*39
$GPRMC,145425.000,A,4853.6251,N,00223.3764,E,0.07,150.63,220885,,*0C
$GPGGA,145426.000,4853.6251,N,00223.3764,E,1,09,1.0,92.4,M,,,,0000*37
$GPGSA,A,3,11,20,04,13,31,25,24,01,23,,,,1.8,1.0,1.5*39
$GPRMC,145426.000,A,4853.6251,N,00223.3764,E,0.07,145.39,220885,,*04
$GPGGA,145427.000,4853.6251,N,00223.3764,E,1,09,1.0,92.4,M,,,,0000*36
$GPGSA,A,3,11,20,04,13,31,25,24,01,23,,,,1.8,1.0,1.5*39
$GPRMC,145427.000,A,4853.6251,N,00223.3764,E,0.07,146.90,220885,,*05
$GPGGA,145428.000,4853.6251,N,00223.3764,E,1,09,1.0,92.4,M,,,,0000*39
$GPGSA,A,3,11,20,04,13,31,25,24,01,23,,,,1.8,1.0,1.5*39
$GPGSV,3,1,09,24,75,285,44,20,68,062,45,23,64,177,44,13,35,203,38*7C
$GPGSV,3,2,09,31,31,228,44,04,30,304,43,11,29,143,44,25,22,052,40*77
$GPGSV,3,3,09,01,18,045,40*4D
$GPRMC,145428.000,A,4853.6251,N,00223.3764,E,0.07,146.92,220885,,*08
$GPGGA,145429.000,4853.6251,N,00223.3764,E,1,09,1.0,92.4,M,,,,0000*38
$GPGSA,A,3,11,20,04,13,31,25,24,01,23,,,,1.8,1.0,1.5*39
$GPRMC,145429.000,A,4853.6251,N,00223.3764,E,0.08,148.15,220885,,*07
$GPGGA,145430.000,4853.6251,N,00223.3764,E,1,09,1.0,92.4,M,,,,0000*30
$GPGSA,A,3,11,20,04,13,31,25,24,01,23,,,,1.8,1.0,1.5*39
$GPRMC,145430.000,A,4853.6251,N,00223.3764,E,0.06,143.89,220885,,*0F
$GPGGA,145431.000,4853.6251,N,00223.3764,E,1,09,1.0,92.4,M,,,,0000*31
$GPGSA,A,3,11,20,04,13,31,25,24,01,23,,,,1.8,1.0,1.5*39
$GPRMC,145431.000,A,4853.6251,N,00223.3764,E,0.07,149.19,220885,,*0C
$GPGGA,145432.000,4853.6251,N,00223.3764,E,1,09,1.0,92.4,M,,,,0000*32
$GPGSA,A,3,11,20,04,13,31,25,24,01,23,,,,1.8,1.0,1.5*39
$GPRMC,145432.000,A,4853.6251,N,00223.3764,E,0.08,140.93,220885,,*0B
$GPGGA,145433.000,4853.6251,N,00223.3764,E,1,09,1.0,92.4,M,,,,0000*33
$GPGSA,A,3,11,20,04,13,31,25,24,01,23,,,,1.8,1.0,1.5*39
$GPGSV,3,1,09,24,75,285,44,20,68,062,45,23,64,177,44,13,35,203,38*7C
$GPGSV,3,2,09,31,31,228,44,04,30,304,43,11,29,143,44,25,22,052,40*77
$GPGSV,3,3,09,01,18,045,39*43
$GPRMC,145433.000,A,4853.6251,N,00223.3764,E,0.08,145.14,220885,,*00
$GPGGA,145434.000,4853.6251,N,00223.3764,E,1,09,1.0,92.4,M,,,,0000*34
$GPGSA,A,3,11,20,04,13,31,25,24,01,23,,,,1.8,1.0,1.5*39
$GPRMC,145434.000,A,4853.6251,N,00223.3764,E,0.08,145.70,220885,,*05
$GPGGA,145435.000,4853.6251,N,00223.3764,E,1,09,1.0,92.4,M,,,,0000*35
$GPGSA,A,3,11,20,04,13,31,25,24,01,23,,,,1.8,1.0,1.5*39
$GPRMC,145435.000,A,4853.6251,N,00223.3764,E,0.08,142.98,220885,,*05
$GPGGA,145436.000,4853.6251,N,00223.3764,E,1,09,1.0,92.4,M,,,,0000*36
$GPGSA,A,3,11,20,04,13,31,25,24,01,23,,,,1.8,1.0,1.5*39
$GPRMC,145436.000,A,4853.6251,N,00223.3764,E,0.07,142.34,220885,,*0F
$GPGGA,145437.000,4853.6251,N,00223.3764,E,1,09,1.0,92.4,M,,,,0000*37
$GPGSA,A,3,11,20,04,13,31,25,24,01,23,,,,1.8,1.0,1.5*39
$GPRMC,145437.000,A,4853.6251,N,00223.3764,E,0.07,147.39,220885,,*06
$GPGGA,145438.000,4853.6251,N,00223.3764,E,1,09,1.0,92.4,M,,,,0000*38
$GPGSA,A,3,11,20,04,13,31,25,24,01,23,,,,1.8,1.0,1.5*39
$GPGSV,3,1,09,24,75,285,44,20,68,062,45,23,64,177,44,13,35,203,38*7C
$GPGSV,3,2,09,31,31,228,44,04,30,304,43,11,29,143,44,25,22,052,40*77
$GPGSV,3,3,09,01,18,045,39*43
$GPRMC,145438.000,A,4853.6251,N,00223.3764,E,0.07,144.41,220885,,*05
$GPGGA,145439.000,4853.6251,N,00223.3764,E,1,09,1.0,92.4,M,,,,0000*39
$GPGSA,A,3,11,20,04,13,31,25,24,01,23,,,,1.8,1.0,1.5*39
$GPRMC,145439.000,A,4853.6251,N,00223.3764,E,0.08,144.77,220885,,*0E
$GPGGA,145440.000,4853.6250,N,00223.3764,E,1,09,1.0,92.4,M,,,,0000*36
$GPGSA,A,3,11,20,04,13,31,25,24,01,23,,,,1.8,1.0,1.5*39
$GPRMC,145440.000,A,4853.6250,N,00223.3764,E,0.08,143.69,220885,,*09
$GPGGA,145441.000,4853.6250,N,00223.3764,E,1,09,1.0,92.5,M,,,,0000*36
$GPGSA,A,3,11,20,04,13,31,25,24,01,23,,,,1.8,1.0,1.5*39
$GPRMC,145441.000,A,4853.6250,N,00223.3764,E,0.07,143.10,220885,,*09
$GPGGA,145442.000,4853.6250,N,00223.3764,E,1,09,1.0,92.5,M,,,,0000*35
$GPGSA,A,3,11,20,04,13,31,25,24,01,23,,,,1.8,1.0,1.5*39
$GPRMC,145442.000,A,4853.6250,N,00223.3764,E,0.08,146.32,220885,,*00
$GPGGA,145443.000,4853.6250,N,00223.3764,E,1,09,1.0,92.5,M,,,,0000*34
$GPGSA,A,3,11,20,04,13,31,25,24,01,23,,,,1.8,1.0,1.5*39
$GPGSV,3,1,09,24,75,285,44,20,68,062,45,23,64,177,44,13,35,203,38*7C
$GPGSV,3,2,09,31,31,228,44,04,30,304,43,11,29,143,43,25,22,052,40*70
$GPGSV,3,3,09,01,18,045,39*43
$GPRMC,145443.000,A,4853.6250,N,00223.3764,E,0.08,152.81,220885,,*0C
$GPGGA,145444.000,4853.6250,N,00223.3764,E,1,09,1.0,92.5,M,,,,0000*33
$GPGSA,A,3,11,20,04,13,31,25,24,01,23,,,,1.8,1.0,1.5*39
$GPRMC,145444.000,A,4853.6250,N,00223.3764,E,0.07,139.31,220885,,*02
$GPGGA,145445.000,4853.6250,N,00223.3764,E,1,09,1.0,92.5,M,,,,0000*32
$GPGSA,A,3,11,20,04,13,31,25,24,01,23,,,,1.8,1.0,1.5*39
$GPRMC,145445.000,A,4853.6250,N,00223.3764,E,0.08,146.76,220885,,*07
$GPGGA,145446.000,4853.6250,N,00223.3764,E,1,09,1.0,92.5,M,,,,0000*31
$GPGSA,A,3,11,20,04,13,31,25,24,01,23,,,,1.8,1.0,1.5*39
$GPRMC,145446.000,A,4853.6250,N,00223.3764,E,0.08,142.28,220885,,*0B
$GPGGA,145447.000,4853.6250,N,00223.3764,E,1,09,1.0,92.5,M,,,,0000*30
$GPGSA,A,3,11,20,04,13,31,25,24,01,23,,,,1.8,1.0,1.5*39
$GPRMC,145447.000,A,4853.6250,N,00223.3764,E,0.07,150.41,220885,,*09
$GPGGA,145448.000,4853.6250,N,00223.3764,E,1,09,1.0,92.5,M,,,,0000*3F
$GPGSA,A,3,11,20,04,13,31,25,24,01,23,,,,1.8,1.0,1.5*39
$GPGSV,3,1,09,24,77,281,44,20,67,064,45,23,66,176,44,13,36,203,38*73
$GPGSV,3,2,09,04,32,304,43,31,30,227,44,11,28,144,44,25,22,051,40*7E
$GPGSV,3,3,09,01,17,044,39*4D
$GPRMC,145448.000,A,4853.6250,N,00223.3764,E,0.07,139.32,220885,,*0D
$GPGGA,145449.000,4853.6250,N,00223.3764,E,1,09,1.0,92.5,M,,,,0000*3E
$GPGSA,A,3,11,20,04,13,31,25,24,01,23,,,,1.8,1.0,1.5*39
$GPRMC,145449.000,A,4853.6250,N,00223.3764,E,0.07,143.02,220885,,*02
$GPGGA,145450.000,4853.6250,N,00223.3764,E,1,09,1.0,92.5,M,,,,0000*36
$GPGSA,A,3,11,20,04,13,31,25,24,01,23,,,,1.8,1.0,1.5*39
$GPRMC,145450.000,A,4853.6250,N,00223.3764,E,0.07,147.32,220885,,*0D
$GPGGA,145451.000,4853.6250,N,00223.3764,E,1,09,1.0,92.5,M,,,,0000*37
$GPGSA,A,3,11,20,04,13,31,25,24,01,23,,,,1.8,1.0,1.5*39
$GPRMC,145451.000,A,4853.6250,N,00223.3764,E,0.07,138.83,220885,,*0E
$GPGGA,145452.000,4853.6250,N,00223.3764,E,1,09,1.0,92.5,M,,,,0000*34
$GPGSA,A,3,11,20,04,13,31,25,24,01,23,,,,1.8,1.0,1.5*39
$GPRMC,145452.000,A,4853.6250,N,00223.3764,E,0.19,184.36,220885,,*0B
$GPGGA,145453.000,4853.6250,N,00223.3764,E,1,09,1.0,92.5,M,,,,0000*35
$GPGSA,A,3,11,20,04,13,31,25,24,01,23,,,,1.8,1.0,1.5*39
$GPGSV,3,1,09,24,77,281,44,20,67,064,45,23,66,176,45,13,36,203,46*7B
$GPGSV,3,2,09,04,32,304,43,31,30,227,43,11,28,144,43,25,22,051,40*7E
$GPGSV,3,3,09,01,17,044,39*4D
$GPRMC,145453.000,A,4853.6250,N,00223.3764,E,0.06,87.54,220885,,*32
$GPGGA,145454.000,4853.6250,N,00223.3764,E,1,09,1.0,92.5,M,,,,0000*32
$GPGSA,A,3,11,20,04,13,31,25,24,01,23,,,,1.8,1.0,1.5*39
$GPRMC,145454.000,A,4853.6250,N,00223.3764,E,0.08,119.07,220885,,*0B
$GPGGA,145455.000,4853.6250,N,00223.3764,E,1,09,1.0,92.5,M,,,,0000*33
$GPGSA,A,3,11,20,04,13,31,25,24,01,23,,,,1.8,1.0,1.5*39
$GPRMC,145455.000,A,4853.6250,N,00223.3764,E,0.07,118.42,220885,,*05
$GPGGA,145456.000,4853.6250,N,00223.3764,E,1,09,1.0,92.6,M,,,,0000*33
$GPGSA,A,3,11,20,04,13,31,25,24,01,23,,,,1.8,1.0,1.5*39
$GPRMC,145456.000,A,4853.6250,N,00223.3764,E,0.05,117.41,220885,,*08
$GPGGA,145457.000,4853.6250,N,00223.3764,E,1,09,1.0,92.6,M,,,,0000*32
$GPGSA,A,3,11,20,04,13,31,25,24,01,23,,,,1.8,1.0,1.5*39
$GPRMC,145457.000,A,4853.6250,N,00223.3764,E,0.06,109.53,220885,,*06
$GPGGA,145458.000,4853.6250,N,00223.3764,E,1,09,1.0,92.6,M,,,,0000*3D
$GPGSA,A,3,11,20,04,13,31,25,24,01,23,,,,1.8,1.0,1.5*39
$GPGSV,3,1,09,24,77,281,44,20,67,064,45,23,66,176,46,13,36,203,46*78
$GPGSV,3,2,09,04,32,304,43,31,30,227,43,11,28,144,43,25,22,051,40*7E
$GPGSV,3,3,09,01,17,044,40*43
$GPRMC,145458.000,A,4853.6250,N,00223.3764,E,0.07,113.48,220885,,*09
$GPGGA,145459.000,4853.6250,N,00223.3765,E,1,09,1.0,92.6,M,,,,0000*3D
$GPGSA,A,3,11,20,04,13,31,25,24,01,23,,,,1.8,1.0,1.5*39
$GPRMC,145459.000,A,4853.6250,N,00223.3765,E,0.06,113.15,220885,,*00
$GPGGA,145500.000,4853.6250,N,00223.3765,E,1,09,1.0,92.6,M,,,,0000*30
$GPGSA,A,3,11,20,04,13,31,25,24,01,23,,,,1.8,1.0,1.5*39
$GPRMC,145500.000,A,4853.6250,N,00223.3765,E,0.07,118.01,220885,,*02
$GPGGA,145501.000,4853.6250,N,00223.3765,E,1,09,1.0,92.6,M,,,,0000*31
$GPGSA,A,3,11,20,04,13,31,25,24,01,23,,,,1.8,1.0,1.5*39
$GPRMC,145501.000,A,4853.6250,N,00223.3765,E,0.06,116.76,220885,,*0C
$GPGGA,145502.000,4853.6251,N,00223.3765,E,1,09,1.0,92.7,M,,,,0000*32
$GPGSA,A,3,11,20,04,13,31,25,24,01,23,,,,1.8,1.0,1.5*39
$GPRMC,145502.000,A,4853.6251,N,00223.3765,E,0.07,115.30,220885,,*0E
$GPGGA,145503.000,4853.6251,N,00223.3765,E,1,09,1.0,92.7,M,,,,0000*33
$GPGSA,A,3,11,20,04,13,31,25,24,01,23,,,,1.8,1.0,1.5*39
$GPGSV,3,1,09,24,77,281,44,20,67,064,45,23,66,176,46,13,36,203,46*78
$GPGSV,3,2,09,04,32,304,42,31,30,227,43,11,28,144,43,25,22,051,40*7F
$GPGSV,3,3,09,01,17,044,39*4D
$GPRMC,145503.000,A,4853.6251,N,00223.3765,E,0.06,113.28,220885,,*01
$GPGGA,145504.000,4853.6251,N,00223.3765,E,1,09,1.0,92.7,M,,,,0000*34
$GPGSA,A,3,11,20,04,13,31,25,24,01,23,,,,1.8,1.0,1.5*39
$GPRMC,145504.000,A,4853.6251,N,00223.3765,E,0.06,118.07,220885,,*00
$GPGGA,145505.000,4853.6251,N,00223.3765,E,1,09,1.0,92.7,M,,,,0000*35
$GPGSA,A,3,11,20,04,13,31,25,24,01,23,,,,1.8,1.0,1.5*39
$GPRMC,145505.000,A,4853.6251,N,00223.3765,E,0.06,109.70,220885,,*01
$GPGGA,145506.000,4853.6251,N,00223.3765,E,1,09,1.0,92.7,M,,,,0000*36
$GPGSA,A,3,11,20,04,13,31,25,24,01,23,,,,1.8,1.0,1.5*39
$GPRMC,145506.000,A,4853.6251,N,00223.3765,E,0.06,116.78,220885,,*04
$GPGGA,145507.000,4853.6251,N,00223.3765,E,1,09,1.0,92.7,M,,,,0000*37
$GPGSA,A,3,11,20,04,13,31,25,24,01,23,,,,1.8,1.0,1.5*39
$GPRMC,145507.000,A,4853.6251,N,00223.3765,E,0.07,122.19,220885,,*04
$GPGGA,145508.000,4853.6251,N,00223.3765,E,1,09,1.0,92.7,M,,,,0000*38
$GPGSA,A,3,11,20,04,13,31,25,24,01,23,,,,1.8,1.0,1.5*39
$GPGSV,3,1,09,24,77,281,44,20,67,064,45,23,66,176,46,13,36,203,46*78
$GPGSV,3,2,09,04,32,304,41,31,30,227,43,11,28,144,42,25,22,051,39*73
$GPGSV,3,3,09,01,17,044,39*4D
$GPRMC,145508.000,A,4853.6251,N,00223.3765,E,0.06,113.36,220885,,*05
$GPGGA,145509.000,4853.6251,N,00223.3765,E,1,09,1.0,92.7,M,,,,0000*39
$GPGSA,A,3,11,20,04,13,31,25,24,01,23,,,,1.8,1.0,1.5*39
$GPRMC,145509.000,A,4853.6251,N,00223.3765,E,0.06,113.89,220885,,*00
$GPGGA,145510.000,4853.6251,N,00223.3765,E,1,09,1.0,92.7,M,,,,0000*31
$GPGSA,A,3,11,20,04,13,31,25,24,01,23,,,,1.8,1.0,1.5*39
$GPRMC,145510.000,A,4853.6251,N,00223.3765,E,0.07,116.02,220885,,*0F
$GPGGA,145511.000,4853.6251,N,00223.3765,E,1,09,1.0,92.7,M,,,,0000*30
$GPGSA,A,3,11,20,04,13,31,25,24,01,23,,,,1.8,1.0,1.5*39
$GPRMC,145511.000,A,4853.6251,N,00223.3765,E,0.07,120.55,220885,,*09
$GPGGA,145512.000,4853.6251,N,00223.3765,E,1,09,1.0,92.7,M,,,,0000*33
$GPGSA,A,3,11,20,04,13,31,25,24,01,23,,,,1.8,1.0,1.5*39
$GPRMC,145512.000,A,4853.6251,N,00223.3765,E,0.06,109.22,220885,,*00
$GPGGA,145513.000,4853.6251,N,00223.3765,E,1,09,1.0,92.7,M,,,,0000*32
$GPGSA,A,3,11,20,04,13,31,25,24,01,23,,,,1.8,1.0,1.5*39
$GPGSV,3,1,09,24,77,281,44,20,67,064,45,23,66,176,46,13,36,203,46*78
$GPGSV,3,2,09,04,32,304,42,31,30,227,42,11,28,144,42,25,22,051,39*71
$GPGSV,3,3,09,01,17,044,39*4D
$GPRMC,145513.000,A,4853.6251,N,00223.3765,E,0.07,123.36,220885,,*0D
$GPGGA,145514.000,4853.6251,N,00223.3765,E,1,09,1.0,92.7,M,,,,0000*35
$GPGSA,A,3,11,20,04,13,31,25,24,01,23,,,,1.8,1.0,1.5*39
$GPRMC,145514.000,A,4853.6251,N,00223.3765,E,0.06,110.39,220885,,*04
$GPGGA,145515.000,4853.6251,N,00223.3765,E,1,09,1.0,92.8,M,,,,0000*3B
$GPGSA,A,3,11,20,04,13,31,25,24,01,23,,,,1.8,1.0,1.5*39
$GPRMC,145515.000,A,4853.6251,N,00223.3765,E,0.06,122.28,220885,,*04
$GPGGA,145516.000,4853.6251,N,00223.3765,E,1,09,1.0,92.8,M,,,,0000*38
$GPGSA,A,3,11,20,04,13,31,25,24,01,23,,,,1.8,1.0,1.5*39
$GPRMC,145516.000,A,4853.6251,N,00223.3765,E,0.07,113.51,220885,,*0A
$GPGGA,145517.000,4853.6251,N,00223.3765,E,1,09,1.0,92.8,M,,,,0000*39
$GPGSA,A,3,11,20,04,13,31,25,24,01,23,,,,1.8,1.0,1.5*39
$GPRMC,145517.000,A,4853.6251,N,00223.3765,E,0.06,120.64,220885,,*0C
$GPGGA,145518.000,4853.6251,N,00223.3765,E,1,09,1.0,92.8,M,,,,0000*36
$GPGSA,A,3,11,20,04,13,31,25,24,01,23,,,,1.8,1.0,1.5*39
$GPGSV,3,1,09,24,77,281,44,20,67,064,44,23,66,176,46,13,36,203,46*79
$GPGSV,3,2,09,04,32,304,42,31,30,227,42,11,28,144,42,25,22,051,39*71
$GPGSV,3,3,09,01,17,044,40*43
$GPRMC,145518.000,A,4853.6251,N,00223.3765,E,0.07,119.94,220885,,*07
$GPGGA,145519.000,4853.6251,N,00223.3765,E,1,09,1.0,92.8,M,,,,0000*37
$GPGSA,A,3,11,20,04,13,31,25,24,01,23,,,,1.8,1.0,1.5*39
$GPRMC,145519.000,A,4853.6251,N,00223.3765,E,0.06,116.18,220885,,*0C
$GPGGA,145520.000,4853.6251,N,00223.3765,E,1,09,1.0,92.8,M,,,,0000*3D
$GPGSA,A,3,11,20,04,13,31,25,24,01,23,,,,1.8,1.0,1.5*39
$GPRMC,145520.000,A,4853.6251,N,00223.3765,E,0.06,117.68,220885,,*00
$GPGGA,145521.000,4853.6251,N,00223.3766,E,1,09,1.0,92.8,M,,,,0000*3F
$GPGSA,A,3,11,20,04,13,31,25,24,01,23,,,,1.8,1.0,1.5*39
$GPRMC,145521.000,A,4853.6251,N,00223.3766,E,0.06,121.09,220885,,*00
$GPGGA,145522.000,4853.6252,N,00223.3766,E,1,09,1.0,92.8,M,,,,0000*3F
$GPGSA,A,3,11,20,04,13,31,25,24,01,23,,,,1.8,1.0,1.5*39
$GPRMC,145522.000,A,4853.6252,N,00223.3766,E,0.06,117.87,220885,,*03
$GPGGA,145523.000,4853.6252,N,00223.3766,E,1,09,1.0,92.8,M,,,,0000*3E
$GPGSA,A,3,11,20,04,13,31,25,24,01,23,,,,1.8,1.0,1.5*39
$GPGSV,3,1,09,24,77,281,43,20,67,064,44,23,66,176,46,13,36,203,46*7E
$GPGSV,3,2,09,04,32,304,43,31,30,227,41,11,28,144,42,25,22,051,40*7D
$GPGSV,3,3,09,01,17,044,39*4D
$GPRMC,145523.000,A,4853.6252,N,00223.3766,E,0.07,114.47,220885,,*0C
$GPGGA,145524.000,4853.6252,N,00223.3766,E,1,09,1.0,92.8,M,,,,0000*39
$GPGSA,A,3,11,20,04,13,31,25,24,01,23,,,,1.8,1.0,1.5*39
$GPRMC,145524.000,A,4853.6252,N,00223.3766,E,0.06,122.52,220885,,*0B
$GPGGA,145525.000,4853.6252,N,00223.3766,E,1,09,1.0,92.8,M,,,,0000*38
$GPGSA,A,3,11,20,04,13,31,25,24,01,23,,,,1.8,1.0,1.5*39
$GPRMC,145525.000,A,4853.6252,N,00223.3766,E,0.06,115.05,220885,,*0C
$GPGGA,145526.000,4853.6252,N,00223.3766,E,1,09,1.0,92.8,M,,,,0000*3B
$GPGSA,A,3,11,20,04,13,31,25,24,01,23,,,,1.8,1.0,1.5*39
$GPRMC,145526.000,A,4853.6252,N,00223.3766,E,0.07,121.39,220885,,*06
$GPGGA,145527.000,4853.6252,N,00223.3766,E,1,09,1.0,92.8,M,,,,0000*3A
$GPGSA,A,3,11,20,04,13,31,25,24,01,23,,,,1.8,1.0,1.5*39
$GPRMC,145527.000,A,4853.6252,N,00223.3766,E,0.06,115.55,220885,,*0B
$GPGGA,145528.000,4853.6252,N,00223.3766,E,1,09,1.0,92.8,M,,,,0000*35
$GPGSA,A,3,11,20,04,13,31,25,24,01,23,,,,1.8,1.0,1.5*39
$GPGSV,3,1,09,24,77,281,43,20,67,064,45,23,66,176,46,13,36,203,45*7C
$GPGSV,3,2,09,04,32,304,44,31,30,227,41,11,28,144,41,25,22,051,40*79
$GPGSV,3,3,09,01,17,044,39*4D
$GPRMC,145528.000,A,4853.6252,N,00223.3766,E,0.07,115.53,220885,,*03
$GPGGA,145529.000,4853.6252,N,00223.3766,E,1,09,1.0,92.8,M,,,,0000*34
$GPGSA,A,3,11,20,04,13,31,25,24,01,23,,,,1.8,1.0,1.5*39
$GPRMC,145529.000,A,4853.6252,N,00223.3766,E,0.06,116.43,220885,,*01
$GPGGA,145530.000,4853.6252,N,00223.3766,E,1,09,1.0,92.8,M,,,,0000*3C
$GPGSA,A,3,11,20,04,13,31,25,24,01,23,,,,1.8,1.0,1.5*39
$GPRMC,145530.000,A,4853.6252,N,00223.3766,E,0.06,118.82,220885,,*0A
$GPGGA,145531.000,4853.6252,N,00223.3766,E,1,09,1.0,92.8,M,,,,0000*3D
$GPGSA,A,3,11,20,04,13,31,25,24,01,23,,,,1.8,1.0,1.5*39
$GPRMC,145531.000,A,4853.6252,N,00223.3766,E,0.07,112.26,220885,,*0E
$GPGGA,145532.000,4853.6252,N,00223.3766,E,1,09,1.0,92.8,M,,,,0000*3E
$GPGSA,A,3,11,20,04,13,31,25,24,01,23,,,,1.8,1.0,1.5*39
$GPRMC,145532.000,A,4853.6252,N,00223.3766,E,0.06,122.35,220885,,*0D
$GPGGA,145533.000,4853.6252,N,00223.3766,E,1,09,1.0,92.8,M,,,,0000*3F
$GPGSA,A,3,11,20,04,13,31,25,24,01,23,,,,1.8,1.0,1.5*39
$GPGSV,3,1,09,24,77,281,44,20,67,064,44,23,66,176,46,13,36,203,45*7A
$GPGSV,3,2,09,04,32,304,44,31,30,227,41,11,28,144,41,25,22,051,40*79
$GPGSV,3,3,09,01,17,044,40*43
$GPRMC,145533.000,A,4853.6252,N,00223.3766,E,0.07,118.98,220885,,*03
$GPGGA,145534.000,4853.6252,N,00223.3766,E,1,09,1.0,92.8,M,,,,0000*38
$GPGSA,A,3,11,20,04,13,31,25,24,01,23,,,,1.8,1.0,1.5*39
$GPRMC,145534.000,A,4853.6252,N,00223.3766,E,0.07,118.91,220885,,*0D
$GPGGA,145535.000,4853.6252,N,00223.3766,E,1,09,1.0,92.9,M,,,,0000*38
$GPGSA,A,3,11,20,04,13,31,25,24,01,23,,,,1.8,1.0,1.5*39
$GPRMC,145535.000,A,4853.6252,N,00223.3766,E,0.07,117.73,220885,,*0F
$GPGGA,145536.000,4853.6252,N,00223.3766,E,1,09,1.0,92.9,M,,,,0000*3B
$GPGSA,A,3,11,20,04,13,31,25,24,01,23,,,,1.8,1.0,1.5*39
$GPRMC,145536.000,A,4853.6252,N,00223.3766,E,0.07,115.12,220885,,*09
$GPGGA,145537.000,4853.6252,N,00223.3766,E,1,09,1.0,92.9,M,,,,0000*3A
$GPGSA,A,3,11,20,04,13,31,25,24,01,23,,,,1.8,1.0,1.5*39
$GPRMC,145537.000,A,4853.6252,N,00223.3766,E,0.07,127.68,220885,,*04
$GPGGA,145538.000,4853.6252,N,00223.3766,E,1,09,1.0,92.9,M,,,,0000*35
$GPGSA,A,3,11,20,04,13,31,25,24,01,23,,,,1.8,1.0,1.5*39
$GPGSV,3,1,09,24,77,281,44,20,67,064,44,23,66,176,46,13,36,203,45*7A
$GPGSV,3,2,09,04,32,304,43,31,30,227,41,11,28,144,41,25,22,051,40*7E
$GPGSV,3,3,09,01,17,044,40*43
$GPRMC,145538.000,A,4853.6252,N,00223.3766,E,0.07,117.46,220885,,*04
$GPGGA,145539.000,4853.6252,N,00223.3766,E,1,09,1.0,92.9,M,,,,0000*34
$GPGSA,A,3,11,20,04,13,31,25,24,01,23,,,,1.8,1.0,1.5*39
$GPRMC,145539.000,A,4853.6252,N,00223.3766,E,0.05,115.12,220885,,*04
$GPGGA,145540.000,4853.6252,N,00223.3766,E,1,09,1.0,92.9,M,,,,0000*3A
$GPGSA,A,3,11,20,04,13,31,25,24,01,23,,,,1.8,1.0,1.5*39
$GPRMC,145540.000,A,4853.6252,N,00223.3766,E,0.05,117.47,220885,,*08
$GPGGA,145541.000,4853.6252,N,00223.3766,E,1,09,1.0,92.9,M,,,,0000*3B
$GPGSA,A,3,11,20,04,13,31,25,24,01,23,,,,1.8,1.0,1.5*39
$GPRMC,145541.000,A,4853.6252,N,00223.3766,E,0.08,115.41,220885,,*00
$GPGGA,145542.000,4853.6252,N,00223.3766,E,1,09,1.0,92.9,M,,,,0000*38
$GPGSA,A,3,11,20,04,13,31,25,24,01,23,,,,1.8,1.0,1.5*39
$GPRMC,145542.000,A,4853.6252,N,00223.3766,E,0.06,120.11,220885,,*0E
$GPGGA,145543.000,4853.6252,N,00223.3766,E,1,09,1.0,92.9,M,,,,0000*39
$GPGSA,A,3,11,20,04,13,31,25,24,01,23,,,,1.8,1.0,1.5*39
$GPGSV,3,1,09,24,77,281,44,20,67,064,44,23,66,176,46,13,36,203,46*79
$GPGSV,3,2,09,04,32,304,42,31,30,227,41,11,28,144,42,25,22,051,40*7C
$GPGSV,3,3,09,01,17,044,40*43
$GPRMC,145543.000,A,4853.6252,N,00223.3766,E,0.06,119.68,220885,,*0B
$GPGGA,145544.000,4853.6252,N,00223.3766,E,1,09,1.0,92.9,M,,,,0000*3E
$GPGSA,A,3,11,20,04,13,31,25,24,01,23,,,,1.8,1.0,1.5*39
$GPRMC,145544.000,A,4853.6252,N,00223.3766,E,0.06,118.28,220885,,*09
$GPGGA,145545.000,4853.6252,N,00223.3766,E,1,09,1.0,92.9,M,,,,0000*3F
$GPGSA,A,3,11,20,04,13,31,25,24,01,23,,,,1.8,1.0,1.5*39
$GPRMC,145545.000,A,4853.6252,N,00223.3766,E,0.06,117.46,220885,,*0F
$GPGGA,145546.000,4853.6252,N,00223.3766,E,1,09,1.0,92.9,M,,,,0000*3C
$GPGSA,A,3,11,20,04,13,31,25,24,01,23,,,,1.8,1.0,1.5*39
$GPRMC,145546.000,A,4853.6252,N,00223.3766,E,0.07,118.19,220885,,*08
$GPGGA,145547.000,4853.6252,N,00223.3766,E,1,09,1.0,92.9,M,,,,0000*3D
$GPGSA,A,3,11,20,04,13,31,25,24,01,23,,,,1.8,1.0,1.5*39
$GPRMC,145547.000,A,4853.6252,N,00223.3766,E,0.06,111.81,220885,,*00
$GPGGA,145548.000,4853.6252,N,00223.3766,E,1,09,1.0,92.9,M,,,,0000*32
$GPGSA,A,3,11,20,04,13,31,25,24,01,23,,,,1.8,1.0,1.5*39
$GPGSV,3,1,09,24,77,281,44,20,67,064,44,23,66,176,46,13,36,203,46*79
$GPGSV,3,2,09,04,32,304,42,31,30,227,41,11,28,144,42,25,22,051,40*7C
$GPGSV,3,3,09,01,17,044,39*4D
$GPRMC,145548.000,A,4853.6252,N,00223.3766,E,0.06,126.97,220885,,*0C
$GPGGA,145549.000,4853.6252,N,00223.3766,E,1,09,1.0,92.9,M,,,,0000*33
$GPGSA,A,3,11,20,04,13,31,25,24,01,23,,,,1.8,1.0,1.5*39
$GPRMC,145549.000,A,4853.6252,N,00223.3766,E,0.06,118.28,220885,,*04
$GPGGA,145550.000,4853.6252,N,00223.3766,E,1,09,1.0,92.9,M,,,,0000*3B
$GPGSA,A,3,11,20,04,13,31,25,24,01,23,,,,1.8,1.0,1.5*39
$GPRMC,145550.000,A,4853.6252,N,00223.3766,E,0.07,121.61,220885,,*0A
$GPGGA,145551.000,4853.6252,N,00223.3766,E,1,09,1.0,92.9,M,,,,0000*3A
$GPGSA,A,3,11,20,04,13,31,25,24,01,23,,,,1.8,1.0,1.5*39
$GPRMC,145551.000,A,4853.6252,N,00223.3766,E,0.07,148.84,220885,,*0F
$GPGGA,145552.000,4853.6252,N,00223.3766,E,1,09,1.0,92.9,M,,,,0000*39
$GPGSA,A,3,11,20,04,13,31,25,24,01,23,,,,1.8,1.0,1.5*39
$GPRMC,145552.000,A,4853.6252,N,00223.3766,E,0.07,140.09,220885,,*01
$GPGGA,145553.000,4853.6252,N,00223.3766,E,1,09,1.0,92.9,M,,,,0000*38
$GPGSA,A,3,11,20,04,13,31,25,24,01,23,,,,1.8,1.0,1.5*39
$GPGSV,3,1,09,24,77,281,43,20,67,064,44,23,66,176,45,13,36,203,38*74
$GPGSV,3,2,09,04,32,304,43,31,30,227,42,11,28,144,43,25,22,051,40*7F
$GPGSV,3,3,09,01,17,044,39*4D
$GPRMC,145553.000,A,4853.6252,N,00223.3766,E,0.08,143.18,220885,,*0C
$GPGGA,145554.000,4853.6252,N,00223.3766,E,1,09,1.0,92.9,M,,,,0000*3F
$GPGSA,A,3,11,20,04,13,31,25,24,01,23,,,,1.8,1.0,1.5*39
$GPRMC,145554.000,A,4853.6252,N,00223.3766,E,0.08,145.90,220885,,*0D
$GPGGA,145555.000,4853.6252,N,00223.3766,E,1,09,1.0,93.0,M,,,,0000*36
$GPGSA,A,3,11,20,04,13,31,25,24,01,23,,,,1.8,1.0,1.5*39
$GPRMC,145555.000,A,4853.6252,N,00223.3766,E,0.07,146.82,220885,,*03
$GPGGA,145556.000,4853.6252,N,00223.3766,E,1,09,1.0,93.0,M,,,,0000*35
$GPGSA,A,3,11,20,04,13,31,25,24,01,23,,,,1.8,1.0,1.5*39
$GPRMC,145556.000,A,4853.6252,N,00223.3766,E,0.08,145.01,220885,,*07
$GPGGA,145557.000,4853.6252,N,00223.3766,E,1,09,1.0,93.0,M,,,,0000*34
$GPGSA,A,3,11,20,04,13,31,25,24,01,23,,,,1.8,1.0,1.5*39
$GPRMC,145557.000,A,4853.6252,N,00223.3766,E,0.07,144.69,220885,,*06
$GPGGA,145558.000,4853.6252,N,00223.3766,E,1,09,1.0,93.0,M,,,,0000*3B
$GPGSA,A,3,11,20,04,13,31,25,24,01,23,,,,1.8,1.0,1.5*39
$GPGSV,3,1,09,24,77,281,43,20,67,064,45,23,66,176,44,13,36,203,38*74
$GPGSV,3,2,09,04,32,304,43,31,30,227,43,11,28,144,43,25,22,051,40*7E
$GPGSV,3,3,09,01,17,044,39*4D
$GPRMC,145558.000,A,4853.6252,N,00223.3766,E,0.08,148.05,220885,,*00
$GPGGA,145559.000,4853.6251,N,00223.3766,E,1,09,1.0,93.0,M,,,,0000*39
$GPGSA,A,3,11,20,04,13,31,25,24,01,23,,,,1.8,1.0,1.5*39
$GPRMC,145559.000,A,4853.6251,N,00223.3766,E,0.06,141.75,220885,,*02
$GPGGA,145600.000,4853.6251,N,00223.3765,E,1,09,1.0,93.0,M,,,,0000*35
$GPGSA,A,3,11,20,04,13,31,25,24,01,23,,,,1.8,1.0,1.5*39
$GPRMC,145600.000,A,4853.6251,N,00223.3765,E,0.08,145.56,220885,,*05
$GPGGA,145601.000,4853.6251,N,00223.3765,E,1,09,1.0,93.0,M,,,,0000*34
$GPGSA,A,3,11,20,04,13,31,25,24,01,23,,,,1.8,1.0,1.5*39
$GPRMC,145601.000,A,4853.6251,N,00223.3765,E,0.07,144.94,220885,,*04
$GPGGA,145602.000,4853.6251,N,00223.3765,E,1,09,1.0,93.0,M,,,,0000*37
$GPGSA,A,3,11,20,04,13,31,25,24,01,23,,,,1.8,1.0,1.5*39
$GPRMC,145602.000,A,4853.6251,N,00223.3765,E,0.06,146.48,220885,,*05
$GPGGA,145603.000,4853.6251,N,00223.3765,E,1,09,1.0,93.0,M,,,,0000*36
$GPGSA,A,3,11,20,04,13,31,25,24,01,23,,,,1.8,1.0,1.5*39
$GPGSV,3,1,09,24,77,281,43,20,67,064,45,23,66,176,44,13,36,203,38*74
$GPGSV,3,2,09,04,32,304,42,31,30,227,43,11,28,144,43,25,22,051,40*7F
$GPGSV,3,3,09,01,17,044,39*4D
$GPRMC,145603.000,A,4853.6251,N,00223.3765,E,0.07,146.99,220885,,*09
$GPGGA,145604.000,4853.6251,N,00223.3765,E,1,09,1.0,93.0,M,,,,0000*31
$GPGSA,A,3,11,20,04,13,31,25,24,01,23,,,,1.8,1.0,1.5*39
$GPRMC,145604.000,A,4853.6251,N,00223.3765,E,0.07,141.01,220885,,*08
$GPGGA,145605.000,4853.6251,N,00223.3765,E,1,09,1.0,93.0,M,,,,0000*30
$GPGSA,A,3,11,20,04,13,31,25,24,01,23,,,,1.8,1.0,1.5*39
$GPRMC,145605.000,A,4853.6251,N,00223.3765,E,0.08,143.47,220885,,*06
$GPGGA,145606.000,4853.6251,N,00223.3765,E,1,09,1.0,93.0,M,,,,0000*33
$GPGSA,A,3,11,20,04,13,31,25,24,01,23,,,,1.8,1.0,1.5*39
$GPRMC,145606.000,A,4853.6251,N,00223.3765,E,0.07,142.49,220885,,*05
$GPGGA,145607.000,4853.6251,N,00223.3765,E,1,09,1.0,93.0,M,,,,0000*32
$GPGSA,A,3,11,20,04,13,31,25,24,01,23,,,,1.8,1.0,1.5*39
$GPRMC,145607.000,A,4853.6251,N,00223.3765,E,0.08,136.87,220885,,*0A
$GPGGA,145608.000,4853.6251,N,00223.3765,E,1,09,1.0,93.0,M,,,,0000*3D
$GPGSA,A,3,11,20,04,13,31,25,24,01,23,,,,1.8,1.0,1.5*39
$GPGSV,3,1,09,24,77,281,44,20,67,064,45,23,66,176,45,13,36,203,39*73
$GPGSV,3,2,09,04,32,304,42,31,30,227,43,11,28,144,43,25,22,051,40*7F
$GPGSV,3,3,09,01,17,044,39*4D
$GPRMC,145608.000,A,4853.6251,N,00223.3765,E,0.07,140.70,220885,,*03
$GPGGA,145609.000,4853.6251,N,00223.3765,E,1,09,1.0,93.0,M,,,,0000*3C
$GPGSA,A,3,11,20,04,13,31,25,24,01,23,,,,1.8,1.0,1.5*39
$GPRMC,145609.000,A,4853.6251,N,00223.3765,E,0.07,141.25,220885,,*03
$GPGGA,145610.000,4853.6251,N,00223.3765,E,1,09,1.0,93.0,M,,,,0000*34
$GPGSA,A,3,11,20,04,13,31,25,24,01,23,,,,1.8,1.0,1.5*39
$GPRMC,145610.000,A,4853.6251,N,00223.3765,E,0.07,140.70,220885,,*0A
$GPGGA,145611.000,4853.6251,N,00223.3765,E,1,09,1.0,93.0,M,,,,0000*35
$GPGSA,A,3,11,20,04,13,31,25,24,01,23,,,,1.8,1.0,1.5*39
$GPRMC,145611.000,A,4853.6251,N,00223.3765,E,0.08,147.21,220885,,*07
$GPGGA,145612.000,4853.6251,N,00223.3765,E,1,09,1.0,93.0,M,,,,0000*36
$GPGSA,A,3,11,20,04,13,31,25,24,01,23,,,,1.8,1.0,1.5*39
$GPRMC,145612.000,A,4853.6251,N,00223.3765,E,0.08,147.25,220885,,*00
$GPGGA,145613.000,4853.6251,N,00223.3765,E,1,09,1.0,93.0,M,,,,0000*37
$GPGSA,A,3,11,20,04,13,31,25,24,01,23,,,,1.8,1.0,1.5*39
$GPGSV,3,1,09,24,77,281,44,20,67,064,45,23,66,176,45,13,36,203,38*72
$GPGSV,3,2,09,04,32,304,42,31,30,227,43,11,28,144,43,25,22,051,39*71
$GPGSV,3,3,09,01,17,044,39*4D
$GPRMC,145613.000,A,4853.6251,N,00223.3765,E,0.07,145.10,220885,,*0A
$GPGGA,145614.000,4853.6251,N,00223.3765,E,1,09,1.0,93.0,M,,,,0000*30
$GPGSA,A,3,11,20,04,13,31,25,24,01,23,,,,1.8,1.0,1.5*39
$GPRMC,145614.000,A,4853.6251,N,00223.3765,E,0.07,145.10,220885,,*0D
$GPGGA,145615.000,4853.6251,N,00223.3765,E,1,09,1.0,93.0,M,,,,0000*31
$GPGSA,A,3,11,20,04,13,31,25,24,01,23,,,,1.8,1.0,1.5*39
$GPRMC,145615.000,A,4853.6251,N,00223.3765,E,0.07,147.90,220885,,*06
$GPGGA,145616.000,4853.6251,N,00223.3765,E,1,09,1.0,93.0,M,,,,0000*32
$GPGSA,A,3,11,20,04,13,31,25,24,01,23,,,,1.8,1.0,1.5*39
$GPRMC,145616.000,A,4853.6251,N,00223.3765,E,0.08,135.80,220885,,*0E
$GPGGA,145617.000,4853.6251,N,00223.3765,E,1,09,1.0,93.0,M,,,,0000*33
$GPGSA,A,3,11,20,04,13,31,25,24,01,23,,,,1.8,1.0,1.5*39
$GPRMC,145617.000,A,4853.6251,N,00223.3765,E,0.06,143.83,220885,,*03
$GPGGA,145618.000,4853.6251,N,00223.3765,E,1,09,1.0,93.0,M,,,,0000*3C
$GPGSA,A,3,11,20,04,13,31,25,24,01,23,,,,1.8,1.0,1.5*39
$GPGSV,3,1,09,24,77,281,44,20,67,064,44,23,66,176,44,13,36,203,39*73
$GPGSV,3,2,09,04,32,304,43,31,30,227,43,11,28,144,43,25,22,051,40*7E
$GPGSV,3,3,09,01,17,044,39*4D
$GPRMC,145618.000,A,4853.6251,N,00223.3765,E,0.07,139.96,220885,,*04
$GPGGA,145619.000,4853.6251,N,00223.3765,E,1,09,1.0,93.0,M,,,,0000*3D
$GPGSA,A,3,11,20,04,13,31,25,24,01,23,,,,1.8,1.0,1.5*39
$GPRMC,145619.000,A,4853.6251,N,00223.3765,E,0.07,140.60,220885,,*02
$GPGGA,145620.000,4853.6251,N,00223.3765,E,1,09,1.0,93.0,M,,,,0000*37
$GPGSA,A,3,11,20,04,13,31,25,24,01,23,,,,1.8,1.0,1.5*39
$GPRMC,145620.000,A,4853.6251,N,00223.3765,E,0.07,140.20,220885,,*0C
$GPGGA,145621.000,4853.6251,N,00223.3765,E,1,09,1.0,93.0,M,,,,0000*36
$GPGSA,A,3,11,20,04,13,31,25,24,01,23,,,,1.8,1.0,1.5*39
$GPRMC,145621.000,A,4853.6251,N,00223.3765,E,0.07,139.74,220885,,*02
$GPGGA,145622.000,4853.6251,N,00223.3765,E,1,09,1.0,93.0,M,,,,0000*35
$GPGSA,A,3,11,20,04,13,31,25,24,01,23,,,,1.8,1.0,1.5*39
$GPRMC,145622.000,A,4853.6251,N,00223.3765,E,0.07,140.47,220885,,*0F
$GPGGA,145623.000,4853.6251,N,00223.3765,E,1,09,1.0,93.0,M,,,,0000*34
$GPGSA,A,3,11,20,04,13,31,25,24,01,23,,,,1.8,1.0,1.5*39
$GPGSV,3,1,09,24,77,281,44,20,67,064,45,23,66,176,44,13,36,203,39*72
$GPGSV,3,2,09,04,32,304,43,31,30,227,43,11,28,144,43,25,22,051,40*7E
$GPGSV,3,3,09,01,17,044,39*4D
$GPRMC,145623.000,A,4853.6251,N,00223.3765,E,0.07,142.72,220885,,*0A
$GPGGA,145624.000,4853.6251,N,00223.3765,E,1,09,1.0,93.0,M,,,,0000*33
$GPGSA,A,3,11,20,04,13,31,25,24,01,23,,,,1.8,1.0,1.5*39
$GPRMC,145624.000,A,4853.6251,N,00223.3765,E,0.08,140.24,220885,,*03
$GPGGA,145625.000,4853.6251,N,00223.3765,E,1,09,1.0,93.0,M,,,,0000*32
$GPGSA,A,3,11,20,04,13,31,25,24,01,23,,,,1.8,1.0,1.5*39
$GPRMC,145625.000,A,4853.6251,N,00223.3765,E,0.08,135.60,220885,,*00
$GPGGA,145626.000,4853.6251,N,00223.3765,E,1,09,1.0,93.0,M,,,,0000*31
$GPGSA,A,3,11,20,04,13,31,25,24,01,23,,,,1.8,1.0,1.5*39
$GPRMC,145626.000,A,4853.6251,N,00223.3765,E,0.07,144.46,220885,,*0E
$GPGGA,145627.000,4853.6251,N,00223.3765,E,1,09,1.0,93.0,M,,,,0000*30
$GPGSA,A,3,11,20,04,13,31,25,24,01,23,,,,1.8,1.0,1.5*39
$GPRMC,145627.000,A,4853.6251,N,00223.3765,E,0.07,136.02,220885,,*0A
$GPGGA,145628.000,4853.6251,N,00223.3765,E,1,09,1.0,93.0,M,,,,0000*3F
$GPGSA,A,3,11,20,04,13,31,25,24,01,23,,,,1.8,1.0,1.5*39
$GPGSV,3,1,09,24,77,281,44,20,67,064,44,23,66,176,44,13,36,203,40*7D
$GPGSV,3,2,09,04,32,304,43,31,30,227,44,11,28,144,43,25,22,051,40*79
$GPGSV,3,3,09,01,17,044,39*4D
$GPRMC,145628.000,A,4853.6251,N,00223.3765,E,0.07,144.91,220885,,*0A
$GPGGA,145629.000,4853.6251,N,00223.3765,E,1,09,1.0,93.0,M,,,,0000*3E
$GPGSA,A,3,11,20,04,13,31,25,24,01,23,,,,1.8,1.0,1.5*39
$GPRMC,145629.000,A,4853.6251,N,00223.3765,E,0.07,141.63,220885,,*03
$GPGGA,145630.000,4853.6251,N,00223.3765,E,1,09,1.0,93.0,M,,,,0000*36
$GPGSA,A,3,11,20,04,13,31,25,24,01,23,,,,1.8,1.0,1.5*39
$GPRMC,145630.000,A,4853.6251,N,00223.3765,E,0.07,140.50,220885,,*0A
$GPGGA,145631.000,4853.6251,N,00223.3765,E,1,09,1.0,93.0,M,,,,0000*37
$GPGSA,A,3,11,20,04,13,31,25,24,01,23,,,,1.8,1.0,1.5*39
$GPRMC,145631.000,A,4853.6251,N,00223.3765,E,0.07,146.83,220885,,*03
$GPGGA,145632.000,4853.6251,N,00223.3765,E,1,09,1.0,93.0,M,,,,0000*34
$GPGSA,A,3,11,20,04,13,31,25,24,01,23,,,,1.8,1.0,1.5*39
$GPRMC,145632.000,A,4853.6251,N,00223.3765,E,0.07,136.56,220885,,*0F
$GPGGA,145633.000,4853.6251,N,00223.3765,E,1,09,1.0,93.0,M,,,,0000*35
$GPGSA,A,3,11,20,04,13,31,25,24,01,23,,,,1.8,1.0,1.5*39
$GPGSV,3,1,09,24,77,281,44,20,67,064,44,23,66,176,45,13,36,203,40*7C
$GPGSV,3,2,09,04,32,304,43,31,30,227,44,11,28,144,43,25,22,051,40*79
$GPGSV,3,3,09,01,17,044,39*4D
$GPRMC,145633.000,A,4853.6251,N,00223.3765,E,0.07,143.64,220885,,*0D
$GPGGA,145634.000,4853.6251,N,00223.3765,E,1,09,1.0,93.0,M,,,,0000*32
$GPGSA,A,3,11,20,04,13,31,25,24,01,23,,,,1.8,1.0,1.5*39
$GPRMC,145634.000,A,4853.6251,N,00223.3765,E,0.07,136.81,220885,,*03
$GPGGA,145635.000,4853.6251,N,00223.3765,E,1,09,1.0,93.0,M,,,,0000*33
$GPGSA,A,3,11,20,04,13,31,25,24,01,23,,,,1.8,1.0,1.5*39
$GPRMC,145635.000,A,4853.6251,N,00223.3765,E,0.07,139.52,220885,,*03
$GPGGA,145636.000,4853.6251,N,00223.3765,E,1,09,1.0,93.0,M,,,,0000*30
$GPGSA,A,3,11,20,04,13,31,25,24,01,23,,,,1.8,1.0,1.5*39
$GPRMC,145636.000,A,4853.6251,N,00223.3765,E,0.07,141.14,220885,,*0D
$GPGGA,145637.000,4853.6251,N,00223.3765,E,1,09,1.0,93.0,M,,,,0000*31
$GPGSA,A,3,11,20,04,13,31,25,24,01,23,,,,1.8,1.0,1.5*39
$GPRMC,145637.000,A,4853.6251,N,00223.3765,E,0.07,139.63,220885,,*03
$GPGGA,145638.000,4853.6251,N,00223.3765,E,1,09,1.0,93.0,M,,,,0000*3E
$GPGSA,A,3,11,20,04,13,31,25,24,01,23,,,,1.8,1.0,1.5*39
$GPGSV,3,1,09,24,77,281,44,20,67,064,45,23,66,176,45,13,36,203,39*73
$GPGSV,3,2,09,04,32,304,44,31,30,227,44,11,28,144,44,25,22,051,40*79
$GPGSV,3,3,09,01,17,044,39*4D
$GPRMC,145638.000,A,4853.6251,N,00223.3765,E,0.07,134.17,220885,,*02
$GPGGA,145639.000,4853.6251,N,00223.3765,E,1,09,1.0,93.0,M,,,,0000*3F
$GPGSA,A,3,11,20,04,13,31,25,24,01,23,,,,1.8,1.0,1.5*39
$GPRMC,145639.000,A,4853.6251,N,00223.3765,E,0.07,139.37,220885,,*0C
$GPGGA,145640.000,4853.6251,N,00223.3765,E,1,09,1.0,93.0,M,,,,0000*31
$GPGSA,A,3,11,20,04,13,31,25,24,01,23,,,,1.8,1.0,1.5*39
$GPRMC,145640.000,A,4853.6251,N,00223.3765,E,0.07,149.46,220885,,*03
$GPGGA,145641.000,4853.6251,N,00223.3765,E,1,09,1.0,93.0,M,,,,0000*30
$GPGSA,A,3,11,20,04,13,31,25,24,01,23,,,,1.8,1.0,1.5*39
$GPRMC,145641.000,A,4853.6251,N,00223.3765,E,0.08,141.03,220885,,*04
$GPGGA,145642.000,4853.6251,N,00223.3765,E,1,09,1.0,93.0,M,,,,0000*33
$GPGSA,A,3,11,20,04,13,31,25,24,01,23,,,,1.8,1.0,1.5*39
$GPRMC,145642.000,A,4853.6251,N,00223.3765,E,0.08,137.52,220885,,*02
$GPGGA,145643.000,4853.6251,N,00223.3765,E,1,09,1.0,93.0,M,,,,0000*32
$GPGSA,A,3,11,20,04,13,31,25,24,01,23,,,,1.8,1.0,1.5*39
$GPGSV,3,1,09,24,77,281,44,20,67,064,45,23,66,176,44,13,36,203,39*72
$GPGSV,3,2,09,04,32,304,43,31,30,227,43,11,28,144,44,25,22,051,40*79
$GPGSV,3,3,09,01,17,044,39*4D
$GPRMC,145643.000,A,4853.6251,N,00223.3765,E,0.05,138.38,220885,,*0D
$GPGGA,145644.000,4853.6251,N,00223.3765,E,1,09,1.0,93.0,M,,,,0000*35
$GPGSA,A,3,11,20,04,13,31,25,24,01,23,,,,1.8,1.0,1.5*39
$GPRMC,145644.000,A,4853.6251,N,00223.3765,E,0.08,140.23,220885,,*02
$GPGGA,145645.000,4853.6251,N,00223.3765,E,1,09,1.0,93.0,M,,,,0000*34
$GPGSA,A,3,11,20,04,13,31,25,24,01,23,,,,1.8,1.0,1.5*39
$GPRMC,145645.000,A,4853.6251,N,00223.3765,E,0.06,138.42,220885,,*05
$GPGGA,145646.000,4853.6251,N,00223.3765,E,1,09,1.0,93.0,M,,,,0000*37
$GPGSA,A,3,11,20,04,13,31,25,24,01,23,,,,1.8,1.0,1.5*39
$GPRMC,145646.000,A,4853.6251,N,00223.3765,E,0.07,143.03,220885,,*0E
$GPGGA,145647.000,4853.6251,N,00223.3765,E,1,09,1.0,93.0,M,,,,0000*36
$GPGSA,A,3,11,20,04,13,31,25,24,01,23,,,,1.8,1.0,1.5*39
$GPRMC,145647.000,A,4853.6251,N,00223.3765,E,0.08,141.19,220885,,*09
$GPGGA,145648.000,4853.6251,N,00223.3765,E,1,09,1.0,93.0,M,,,,0000*39
$GPGSA,A,3,11,20,04,13,31,25,24,01,23,,,,1.8,1.0,1.5*39
$GPGSV,3,1,09,24,77,281,44,20,67,064,45,23,66,176,44,13,36,203,39*72
$GPGSV,3,2,09,04,32,304,43,31,30,227,44,11,28,144,44,25,22,051,40*7E
$GPGSV,3,3,09,01,17,044,39*4D
$GPRMC,145648.000,A,4853.6251,N,00223.3765,E,0.08,143.40,220885,,*08
$GPGGA,145649.000,4853.6251,N,00223.3765,E,1,09,1.0,93.0,M,,,,0000*38
$GPGSA,A,3,11,20,04,13,31,25,24,01,23,,,,1.8,1.0,1.5*39
$GPRMC,145649.000,A,4853.6251,N,00223.3765,E,0.08,136.67,220885,,*0E
$GPGGA,145650.000,4853.6251,N,00223.3765,E,1,09,1.0,93.0,M,,,,0000*30
$GPGSA,A,3,11,20,04,13,31,25,24,01,23,,,,1.8,1.0,1.5*39
$GPRMC,145650.000,A,4853.6251,N,00223.3765,E,0.06,137.14,220885,,*0D
$GPGGA,145651.000,4853.6251,N,00223.3765,E,1,09,1.0,93.0,M,,,,0000*31
$GPGSA,A,3,11,20,04,13,31,25,24,01,23,,,,1.8,1.0,1.5*39
$GPRMC,145651.000,A,4853.6251,N,00223.3765,E,0.07,141.56,220885,,*0A
$GPGGA,145652.000,4853.6251,N,00223.3765,E,1,09,1.0,93.1,M,,,,0000*33
$GPGSA,A,3,11,20,04,13,31,25,24,01,23,,,,1.8,1.0,1.5*39
$GPRMC,145652.000,A,4853.6251,N,00223.3765,E,0.07,138.42,220885,,*02
$GPGGA,145653.000,4853.6251,N,00223.3765,E,1,09,1.0,93.1,M,,,,0000*32
$GPGSA,A,3,11,20,04,13,31,25,24,01,23,,,,1.8,1.0,1.5*39
$GPGSV,3,1,09,24,77,281,44,20,67,064,45,23,66,176,44,13,36,203,39*72
$GPGSV,3,2,09,04,32,304,43,31,30,227,44,11,28,144,44,25,22,051,40*7E
$GPGSV,3,3,09,01,17,044,39*4D
$GPRMC,145653.000,A,4853.6251,N,00223.3765,E,0.06,137.00,220885,,*0B
$GPGGA,145654.000,4853.6251,N,00223.3765,E,1,09,1.0,93.1,M,,,,0000*35
$GPGSA,A,3,11,20,04,13,31,25,24,01,23,,,,1.8,1.0,1.5*39
$GPRMC,145654.000,A,4853.6251,N,00223.3765,E,0.08,142.75,220885,,*02
$GPGGA,145655.000,4853.6251,N,00223.3765,E,1,09,1.0,93.1,M,,,,0000*34
$GPGSA,A,3,11,20,04,13,31,25,24,01,23,,,,1.8,1.0,1.5*39
$GPRMC,145655.000,A,4853.6251,N,00223.3765,E,0.06,133.16,220885,,*0E
$GPGGA,145656.000,4853.6251,N,00223.3765,E,1,09,1.0,93.1,M,,,,0000*37
$GPGSA,A,3,11,20,04,13,31,25,24,01,23,,,,1.8,1.0,1.5*39
$GPRMC,145656.000,A,4853.6251,N,00223.3765,E,0.08,144.40,220885,,*00
$GPGGA,145657.000,4853.6251,N,00223.3765,E,1,09,1.0,93.1,M,,,,0000*36
$GPGSA,A,3,11,20,04,13,31,25,24,01,23,,,,1.8,1.0,1.5*39
$GPRMC,145657.000,A,4853.6251,N,00223.3765,E,0.06,143.69,220885,,*03
$GPGGA,145658.000,4853.6251,N,00223.3765,E,1,09,1.0,93.1,M,,,,0000*39
$GPGSA,A,3,11,20,04,13,31,25,24,01,23,,,,1.8,1.0,1.5*39
$GPGSV,3,1,09,24,77,281,44,20,67,064,45,23,66,176,44,13,36,203,39*72
$GPGSV,3,2,09,04,32,304,43,31,30,227,44,11,28,144,45,25,22,051,40*7F
$GPGSV,3,3,09,01,17,044,39*4D
$GPRMC,145658.000,A,4853.6251,N,00223.3765,E,0.07,135.34,220885,,*04
$GPGGA,145659.000,4853.6251,N,00223.3765,E,1,09,1.0,93.1,M,,,,0000*38
$GPGSA,A,3,11,20,04,13,31,25,24,01,23,,,,1.8,1.0,1.5*39
$GPRMC,145659.000,A,4853.6251,N,00223.3765,E,0.07,136.71,220885,,*07
$GPGGA,145700.000,4853.6251,N,00223.3765,E,1,09,1.0,93.1,M,,,,0000*35
$GPGSA,A,3,11,20,04,13,31,25,24,01,23,,,,1.8,1.0,1.5*39
$GPRMC,145700.000,A,4853.6251,N,00223.3765,E,0.07,142.19,220885,,*07
$GPGGA,145701.000,4853.6251,N,00223.3765,E,1,09,1.0,93.1,M,,,,0000*34
$GPGSA,A,3,11,20,04,13,31,25,24,01,23,,,,1.8,1.0,1.5*39
$GPRMC,145701.000,A,4853.6251,N,00223.3765,E,0.07,134.43,220885,,*08
$GPGGA,145702.000,4853.6251,N,00223.3765,E,1,09,1.0,93.1,M,,,,0000*37
$GPGSA,A,3,11,20,04,13,31,25,24,01,23,,,,1.8,1.0,1.5*39
$GPRMC,145702.000,A,4853.6251,N,00223.3765,E,0.07,137.29,220885,,*04
$GPGGA,145703.000,4853.6251,N,00223.3765,E,1,09,1.0,93.1,M,,,,0000*36
$GPGSA,A,3,11,20,04,13,31,25,24,01,23,,,,1.8,1.0,1.5*39
$GPGSV,3,1,09,24,77,281,44,20,67,064,45,23,66,176,45,13,36,203,39*73
$GPGSV,3,2,09,04,32,304,43,31,30,227,43,11,28,144,44,25,22,051,40*79
$GPGSV,3,3,09,01,17,044,39*4D
$GPRMC,145703.000,A,4853.6251,N,00223.3765,E,0.07,138.93,220885,,*0B
$GPGGA,145704.000,4853.6251,N,00223.3765,E,1,09,1.0,93.1,M,,,,0000*31
$GPGSA,A,3,11,20,04,13,31,25,24,01,23,,,,1.8,1.0,1.5*39
$GPRMC,145704.000,A,4853.6251,N,00223.3765,E,0.07,137.47,220885,,*0A
$GPGGA,145705.000,4853.6251,N,00223.3765,E,1,09,1.0,93.1,M,,,,0000*30
$GPGSA,A,3,11,20,04,13,31,25,24,01,23,,,,1.8,1.0,1.5*39
$GPRMC,145705.000,A,4853.6251,N,00223.3765,E,0.07,140.43,220885,,*0F
$GPGGA,145706.000,4853.6251,N,00223.3765,E,1,09,1.0,93.1,M,,,,0000*33
$GPGSA,A,3,11,20,04,13,31,25,24,01,23,,,,1.8,1.0,1.5*39
$GPRMC,145706.000,A,4853.6251,N,00223.3765,E,0.07,138.36,220885,,*01
$GPGGA,145707.000,4853.6251,N,00223.3765,E,1,09,1.0,93.1,M,,,,0000*32
$GPGSA,A,3,11,20,04,13,31,25,24,01,23,,,,1.8,1.0,1.5*39
$GPRMC,145707.000,A,4853.6251,N,00223.3765,E,0.08,130.12,220885,,*01
$GPGGA,145708.000,4853.6251,N,00223.3765,E,1,09,1.0,93.1,M,,,,0000*3D
$GPGSA,A,3,11,20,04,13,31,25,24,01,23,,,,1.8,1.0,1.5*39
$GPGSV,3,1,09,24,77,281,44,20,67,064,45,23,66,176,45,13,36,203,39*73
$GPGSV,3,2,09,04,32,304,43,31,30,227,43,11,28,144,44,25,22,051,40*79
$GPGSV,3,3,09,01,17,044,39*4D
$GPRMC,145708.000,A,4853.6251,N,00223.3765,E,0.05,142.19,220885,,*0D
$GPGGA,145709.000,4853.6251,N,00223.3765,E,1,09,1.0,93.1,M,,,,0000*3C
$GPGSA,A,3,11,20,04,13,31,25,24,01,23,,,,1.8,1.0,1.5*39
$GPRMC,145709.000,A,4853.6251,N,00223.3765,E,0.07,136.73,220885,,*01
$GPGGA,145710.000,4853.6251,N,00223.3765,E,1,09,1.0,93.1,M,,,,0000*34
$GPGSA,A,3,11,20,04,13,31,25,24,01,23,,,,1.8,1.0,1.5*39
$GPRMC,145710.000,A,4853.6251,N,00223.3765,E,0.08,142.74,220885,,*02
$GPGGA,145711.000,4853.6251,N,00223.3765,E,1,09,1.0,93.1,M,,,,0000*35
$GPGSA,A,3,11,20,04,13,31,25,24,01,23,,,,1.8,1.0,1.5*39
$GPRMC,145711.000,A,4853.6251,N,00223.3765,E,0.07,138.45,220885,,*03
$GPGGA,145712.000,4853.6251,N,00223.3765,E,1,09,1.0,93.1,M,,,,0000*36
$GPGSA,A,3,11,20,04,13,31,25,24,01,23,,,,1.8,1.0,1.5*39
$GPRMC,145712.000,A,4853.6251,N,00223.3765,E,0.07,139.84,220885,,*0C
$GPGGA,145713.000,4853.6250,N,00223.3765,E,1,09,1.0,93.1,M,,,,0000*36
$GPGSA,A,3,11,20,04,13,31,25,24,01,23,,,,1.8,1.0,1.5*39
$GPGSV,3,1,09,24,77,281,44,20,67,064,45,23,66,176,45,13,36,203,39*73
$GPGSV,3,2,09,04,32,304,43,31,30,227,43,11,28,144,44,25,22,051,40*79
$GPGSV,3,3,09,01,17,044,40*43
$GPRMC,145713.000,A,4853.6250,N,00223.3765,E,0.07,137.92,220885,,*05
$GPGGA,145714.000,4853.6250,N,00223.3765,E,1,09,1.0,93.1,M,,,,0000*31
$GPGSA,A,3,11,20,04,13,31,25,24,01,23,,,,1.8,1.0,1.5*39
$GPRMC,145714.000,A,4853.6250,N,00223.3765,E,0.07,149.46,220885,,*02
$GPGGA,145715.000,4853.6250,N,00223.3765,E,1,09,1.0,93.1,M,,,,0000*30
$GPGSA,A,3,11,20,04,13,31,25,24,01,23,,,,1.8,1.0,1.5*39
$GPRMC,145715.000,A,4853.6250,N,00223.3765,E,0.07,136.21,220885,,*0A
$GPGGA,145716.000,4853.6250,N,00223.3765,E,1,09,1.0,93.1,M,,,,0000*33
$GPGSA,A,3,11,20,04,13,31,25,24,01,23,,,,1.8,1.0,1.5*39
$GPRMC,145716.000,A,4853.6250,N,00223.3765,E,0.07,147.53,220885,,*0A
$GPGGA,145717.000,4853.6250,N,00223.3765,E,1,09,1.0,93.1,M,,,,0000*32
$GPGSA,A,3,11,20,04,13,31,25,24,01,23,,,,1.8,1.0,1.5*39
$GPRMC,145717.000,A,4853.6250,N,00223.3765,E,0.08,132.75,220885,,*02
$GPGGA,145718.000,4853.6250,N,00223.3765,E,1,09,1.0,93.1,M,,,,0000*3D
$GPGSA,A,3,11,20,04,13,31,25,24,01,23,,,,1.8,1.0,1.5*39
$GPGSV,3,1,09,24,77,281,44,20,67,064,45,23,66,176,45,13,36,203,39*73
$GPGSV,3,2,09,04,32,304,43,31,30,227,43,11,28,144,44,25,22,051,40*79
$GPGSV,3,3,09,01,17,044,39*4D
$GPRMC,145718.000,A,4853.6250,N,00223.3765,E,0.07,146.45,220885,,*02
$GPGGA,145719.000,4853.6250,N,00223.3765,E,1,09,1.0,93.1,M,,,,0000*3C
$GPGSA,A,3,11,20,04,13,31,25,24,01,23,,,,1.8,1.0,1.5*39
$GPRMC,145719.000,A,4853.6250,N,00223.3765,E,0.07,137.27,220885,,*01
$GPGGA,145720.000,4853.6250,N,00223.3765,E,1,09,1.0,93.1,M,,,,0000*36
$GPGSA,A,3,11,20,04,13,31,25,24,01,23,,,,1.8,1.0,1.5*39
$GPRMC,145720.000,A,4853.6250,N,00223.3765,E,0.07,142.51,220885,,*08
$GPGGA,145721.000,4853.6250,N,00223.3765,E,1,09,1.0,93.1,M,,,,0000*37
$GPGSA,A,3,11,20,04,13,31,25,24,01,23,,,,1.8,1.0,1.5*39
$GPRMC,145721.000,A,4853.6250,N,00223.3765,E,0.07,135.94,220885,,*00
$GPGGA,145722.000,4853.6250,N,00223.3765,E,1,09,1.0,93.1,M,,,,0000*34
$GPGSA,A,3,11,20,04,13,31,25,24,01,23,,,,1.8,1.0,1.5*39
$GPRMC,145722.000,A,4853.6250,N,00223.3765,E,0.07,146.15,220885,,*0E
$GPGGA,145723.000,4853.6250,N,00223.3765,E,1,09,1.0,93.1,M,,,,0000*35
$GPGSA,A,3,11,20,04,13,31,25,24,01,23,,,,1.8,1.0,1.5*39
$GPGSV,3,1,09,24,77,281,44,20,67,064,45,23,66,176,45,13,36,203,39*73
$GPGSV,3,2,09,04,32,304,43,31,30,227,43,11,28,144,44,25,22,051,40*79
$GPGSV,3,3,09,01,17,044,40*43
$GPRMC,145723.000,A,4853.6250,N,00223.3765,E,0.06,140.17,220885,,*0A
$GPGGA,145724.000,4853.6250,N,00223.3765,E,1,09,1.0,93.1,M,,,,0000*32
$GPGSA,A,3,11,20,04,13,31,25,24,01,23,,,,1.8,1.0,1.5*39
$GPRMC,145724.000,A,4853.6250,N,00223.3765,E,0.07,142.60,220885,,*0E
$GPGGA,145725.000,4853.6250,N,00223.3765,E,1,09,1.0,93.1,M,,,,0000*33
$GPGSA,A,3,11,20,04,13,31,25,24,01,23,,,,1.8,1.0,1.5*39
$GPRMC,145725.000,A,4853.6250,N,00223.3765,E,0.08,137.71,220885,,*02
$GPGGA,145726.000,4853.6250,N,00223.3765,E,1,09,1.0,93.1,M,,,,0000*30
$GPGSA,A,3,11,20,04,13,31,25,24,01,23,,,,1.8,1.0,1.5*39
$GPRMC,145726.000,A,4853.6250,N,00223.3765,E,0.07,146.01,220885,,*0F
$GPGGA,145727.000,4853.6250,N,00223.3765,E,1,09,1.0,93.1,M,,,,0000*31
$GPGSA,A,3,11,20,04,13,31,25,24,01,23,,,,1.8,1.0,1.5*39
$GPRMC,145727.000,A,4853.6250,N,00223.3765,E,0.06,140.61,220885,,*0F
$GPGGA,145728.000,4853.6250,N,00223.3765,E,1,09,1.0,93.1,M,,,,0000*3E
$GPGSA,A,3,11,20,04,13,31,25,24,01,23,,,,1.8,1.0,1.5*39
$GPGSV,3,1,09,24,77,281,44,20,67,064,45,23,66,176,45,13,36,203,40*7D
$GPGSV,3,2,09,04,32,304,43,31,30,227,43,11,28,144,44,25,22,051,40*79
$GPGSV,3,3,09,01,17,044,40*43
$GPRMC,145728.000,A,4853.6250,N,00223.3765,E,0.08,143.30,220885,,*09
$GPGGA,145729.000,4853.6250,N,00223.3765,E,1,09,1.0,93.1,M,,,,0000*3F
$GPGSA,A,3,11,20,04,13,31,25,24,01,23,,,,1.8,1.0,1.5*39
$GPRMC,145729.000,A,4853.6250,N,00223.3765,E,0.07,141.66,220885,,*06
$GPGGA,145730.000,4853.6250,N,00223.3765,E,1,09,1.0,93.1,M,,,,0000*37
$GPGSA,A,3,11,20,04,13,31,25,24,01,23,,,,1.8,1.0,1.5*39
$GPRMC,145730.000,A,4853.6250,N,00223.3765,E,0.07,136.11,220885,,*0E
$GPGGA,145731.000,4853.6250,N,00223.3765,E,1,09,1.0,93.1,M,,,,0000*36
$GPGSA,A,3,11,20,04,13,31,25,24,01,23,,,,1.8,1.0,1.5*39
$GPRMC,145731.000,A,4853.6250,N,00223.3765,E,0.07,139.04,220885,,*04
$GPGGA,145732.000,4853.6250,N,00223.3765,E,1,09,1.0,93.1,M,,,,0000*35
$GPGSA,A,3,11,20,04,13,31,25,24,01,23,,,,1.8,1.0,1.5*39
$GPRMC,145732.000,A,4853.6250,N,00223.3765,E,0.07,145.09,220885,,*01
$GPGGA,145733.000,4853.6250,N,00223.3765,E,1,09,1.0,93.1,M,,,,0000*34
$GPGSA,A,3,11,20,04,13,31,25,24,01,23,,,,1.8,1.0,1.5*39
$GPGSV,3,1,09,24,77,281,44,20,67,064,45,23,66,176,44,13,36,203,40*7C
$GPGSV,3,2,09,04,32,304,43,31,30,227,44,11,28,144,44,25,22,051,40*7E
$GPGSV,3,3,09,01,17,044,40*43
$GPRMC,145733.000,A,4853.6250,N,00223.3765,E,0.06,138.40,220885,,*06
$GPGGA,145734.000,4853.6250,N,00223.3765,E,1,09,1.0,93.1,M,,,,0000*33
$GPGSA,A,3,11,20,04,13,31,25,24,01,23,,,,1.8,1.0,1.5*39
$GPRMC,145734.000,A,4853.6250,N,00223.3765,E,0.07,138.78,220885,,*0B
$GPGGA,145735.000,4853.6250,N,00223.3765,E,1,09,1.0,93.1,M,,,,0000*32
$GPGSA,A,3,11,20,04,13,31,25,24,01,23,,,,1.8,1.0,1.5*39
$GPRMC,145735.000,A,4853.6250,N,00223.3765,E,0.07,143.03,220885,,*0A
$GPGGA,145736.000,4853.6250,N,00223.3765,E,1,09,1.0,93.1,M,,,,0000*31
$GPGSA,A,3,11,20,04,13,31,25,24,01,23,,,,1.8,1.0,1.5*39
$GPRMC,145736.000,A,4853.6250,N,00223.3765,E,0.07,136.34,220885,,*0F
$GPGGA,145737.000,4853.6250,N,00223.3765,E,1,09,1.0,93.1,M,,,,0000*30
$GPGSA,A,3,11,20,04,13,31,25,24,01,23,,,,1.8,1.0,1.5*39
$GPRMC,145737.000,A,4853.6250,N,00223.3765,E,0.07,138.18,220885,,*0E
$GPGGA,145738.000,4853.6250,N,00223.3765,E,1,09,1.0,93.1,M,,,,0000*3F
$GPGSA,A,3,11,20,04,13,31,25,24,01,23,,,,1.8,1.0,1.5*39
$GPGSV,3,1,09,24,77,281,44,20,67,064,45,23,66,176,44,13,36,203,40*7C
$GPGSV,3,2,09,04,32,304,43,31,30,227,44,11,28,144,44,25,22,051,40*7E
$GPGSV,3,3,09,01,17,044,40*43
$GPRMC,145738.000,A,4853.6250,N,00223.3765,E,0.06,141.89,220885,,*06
$GPGGA,145739.000,4853.6250,N,00223.3765,E,1,09,1.0,93.1,M,,,,0000*3E
$GPGSA,A,3,11,20,04,13,31,25,24,01,23,,,,1.8,1.0,1.5*39
$GPRMC,145739.000,A,4853.6250,N,00223.3765,E,0.07,141.66,220885,,*07
$GPGGA,145740.000,4853.6250,N,00223.3765,E,1,09,1.0,93.1,M,,,,0000*30
$GPGSA,A,3,11,20,04,13,31,25,24,01,23,,,,1.8,1.0,1.5*39
$GPRMC,145740.000,A,4853.6250,N,00223.3765,E,0.07,138.65,220885,,*04
$GPGGA,145741.000,4853.6250,N,00223.3765,E,1,09,1.0,93.1,M,,,,0000*31
$GPGSA,A,3,11,20,04,13,31,25,24,01,23,,,,1.8,1.0,1.5*39
$GPRMC,145741.000,A,4853.6250,N,00223.3765,E,0.07,135.22,220885,,*0B
$GPGGA,145742.000,4853.6250,N,00223.3765,E,1,09,1.0,93.1,M,,,,0000*32
$GPGSA,A,3,11,20,04,13,31,25,24,01,23,,,,1.8,1.0,1.5*39
$GPRMC,145742.000,A,4853.6250,N,00223.3765,E,0.06,145.85,220885,,*03
$GPGGA,145743.000,4853.6250,N,00223.3765,E,1,09,1.0,93.1,M,,,,0000*33
$GPGSA,A,3,11,20,04,13,31,25,24,01,23,,,,1.8,1.0,1.5*39
$GPGSV,3,1,09,24,77,281,44,20,67,064,45,23,66,176,45,13,36,203,40*7D
$GPGSV,3,2,09,04,32,304,43,31,30,227,43,11,28,144,44,25,22,051,40*79
$GPGSV,3,3,09,01,17,044,39*4D
$GPRMC,145743.000,A,4853.6250,N,00223.3765,E,0.06,137.50,220885,,*0F
$GPGGA,145744.000,4853.6250,N,00223.3765,E,1,09,1.0,93.1,M,,,,0000*34
$GPGSA,A,3,11,20,04,13,31,25,24,01,23,,,,1.8,1.0,1.5*39
$GPRMC,145744.000,A,4853.6250,N,00223.3765,E,0.07,144.46,220885,,*0A
$GPGGA,145745.000,4853.6250,N,00223.3765,E,1,09,1.0,93.1,M,,,,0000*35
$GPGSA,A,3,11,20,04,13,31,25,24,01,23,,,,1.8,1.0,1.5*39
$GPRMC,145745.000,A,4853.6250,N,00223.3765,E,0.07,140.95,220885,,*01
$GPGGA,145746.000,4853.6250,N,00223.3765,E,1,09,1.0,93.1,M,,,,0000*36
$GPGSA,A,3,11,20,04,13,31,25,24,01,23,,,,1.8,1.0,1.5*39
$GPRMC,145746.000,A,4853.6250,N,00223.3765,E,0.06,136.95,220885,,*02
$GPGGA,145747.000,4853.6250,N,00223.3765,E,1,09,1.0,93.1,M,,,,0000*37
$GPGSA,A,3,11,20,04,13,31,25,24,01,23,,,,1.8,1.0,1.5*39
$GPRMC,145747.000,A,4853.6250,N,00223.3765,E,0.07,139.27,220885,,*04
$GPGGA,145748.000,4853.6250,N,00223.3765,E,1,09,1.0,93.1,M,,,,0000*38
$GPGSA,A,3,11,20,04,13,31,25,24,01,23,,,,1.8,1.0,1.5*39
$GPGSV,3,1,09,24,78,277,44,23,67,174,45,20,66,066,45,13,38,204,40*72
$GPGSV,3,2,09,04,33,304,43,31,29,226,43,11,26,144,44,25,21,050,40*7D
$GPGSV,3,3,09,01,16,044,39*4C
$GPRMC,145748.000,A,4853.6250,N,00223.3765,E,0.07,142.81,220885,,*0B
$GPGGA,145749.000,4853.6250,N,00223.3765,E,1,09,1.0,93.1,M,,,,0000*39
$GPGSA,A,3,11,20,04,13,31,25,24,01,23,,,,1.8,1.0,1.5*39
$GPRMC,145749.000,A,4853.6250,N,00223.3765,E,0.08,137.12,220885,,*0D
$GPGGA,145750.000,4853.6250,N,00223.3765,E,1,09,1.0,93.1,M,,,,0000*31
$GPGSA,A,3,11,20,04,13,31,25,24,01,23,,,,1.8,1.0,1.5*39
$GPRMC,145750.000,A,4853.6250,N,00223.3765,E,0.07,142.84,220885,,*07
$GPGGA,145751.000,4853.6250,N,00223.3765,E,1,09,1.0,93.1,M,,,,0000*30
$GPGSA,A,3,11,20,04,13,31,25,24,01,23,,,,1.8,1.0,1.5*39
$GPRMC,145751.000,A,4853.6250,N,00223.3765,E,0.06,132.96,220885,,*03
$GPGGA,145752.000,4853.6250,N,00223.3765,E,1,09,1.0,93.1,M,,,,0000*33
$GPGSA,A,3,11,20,04,13,31,25,24,01,23,,,,1.8,1.0,1.5*39
$GPRMC,145752.000,A,4853.6250,N,00223.3765,E,0.07,144.43,220885,,*08
$GPGGA,145753.000,4853.6250,N,00223.3765,E,1,09,1.0,93.1,M,,,,0000*32
$GPGSA,A,3,11,20,04,13,31,25,24,01,23,,,,1.8,1.0,1.5*39
$GPGSV,3,1,09,24,78,277,44,23,67,174,44,20,66,066,45,13,38,204,40*73
$GPGSV,3,2,09,04,33,304,43,31,29,226,43,11,26,144,44,25,21,050,40*7D
$GPGSV,3,3,09,01,16,044,39*4C
$GPRMC,145753.000,A,4853.6250,N,00223.3765,E,0.06,142.84,220885,,*05
$GPGGA,145754.000,4853.6250,N,00223.3765,E,1,09,1.0,93.1,M,,,,0000*35
$GPGSA,A,3,11,20,04,13,31,25,24,01,23,,,,1.8,1.0,1.5*39
$GPRMC,145754.000,A,4853.6250,N,00223.3765,E,0.08,130.62,220885,,*01
$GPGGA,145755.000,4853.6250,N,00223.3765,E,1,09,1.0,93.1,M,,,,0000*34
$GPGSA,A,3,11,20,04,13,31,25,24,01,23,,,,1.8,1.0,1.5*39
$GPRMC,145755.000,A,4853.6250,N,00223.3765,E,0.06,125.89,220885,,*0F
$GPGGA,145756.000,4853.6250,N,00223.3765,E,1,09,1.0,93.1,M,,,,0000*37
$GPGSA,A,3,11,20,04,13,31,25,24,01,23,,,,1.8,1.0,1.5*39
$GPRMC,145756.000,A,4853.6250,N,00223.3765,E,0.07,128.27,220885,,*04
$GPGGA,145757.000,4853.6250,N,00223.3765,E,1,09,1.0,93.1,M,,,,0000*36
$GPGSA,A,3,11,20,04,13,31,25,24,01,23,,,,1.8,1.0,1.5*39
$GPRMC,145757.000,A,4853.6250,N,00223.3765,E,0.06,126.64,220885,,*0D
$GPGGA,145758.000,4853.6250,N,00223.3765,E,1,09,1.0,93.1,M,,,,0000*39
$GPGSA,A,3,11,20,04,13,31,25,24,01,23,,,,1.8,1.0,1.5*39
$GPGSV,3,1,09,24,78,277,44,23,67,174,44,20,66,066,45,13,38,204,40*73
$GPGSV,3,2,09,04,33,304,42,31,29,226,43,11,26,144,44,25,21,050,41*7D
$GPGSV,3,3,09,01,16,044,39*4C
$GPRMC,145758.000,A,4853.6250,N,00223.3765,E,0.07,126.15,220885,,*05
$GPGGA,145759.000,4853.6250,N,00223.3765,E,1,09,1.0,93.0,M,,,,0000*39
$GPGSA,A,3,11,20,04,13,31,25,24,01,23,,,,1.8,1.0,1.5*39
$GPRMC,145759.000,A,4853.6250,N,00223.3765,E,0.06,131.27,220885,,*02
$GPGGA,145800.000,4853.6250,N,00223.3765,E,1,09,1.0,93.0,M,,,,0000*3A
$GPGSA,A,3,11,20,04,13,31,25,24,01,23,,,,1.8,1.0,1.5*39
$GPRMC,145800.000,A,4853.6250,N,00223.3765,E,0.07,129.55,220885,,*0C
$GPGGA,145801.000,4853.6250,N,00223.3765,E,1,09,1.0,93.0,M,,,,0000*3B
$GPGSA,A,3,11,20,04,13,31,25,24,01,23,,,,1.8,1.0,1.5*39
$GPRMC,145801.000,A,4853.6250,N,00223.3765,E,0.06,125.91,220885,,*08
$GPGGA,145802.000,4853.6250,N,00223.3765,E,1,09,1.0,93.0,M,,,,0000*38
$GPGSA,A,3,11,20,04,13,31,25,24,01,23,,,,1.8,1.0,1.5*39
$GPRMC,145802.000,A,4853.6250,N,00223.3765,E,0.08,125.42,220885,,*0B
$GPGGA,145803.000,4853.6250,N,00223.3765,E,1,09,1.0,93.0,M,,,,0000*39
$GPGSA,A,3,11,20,04,13,31,25,24,01,23,,,,1.8,1.0,1.5*39
$GPGSV,3,1,09,24,78,277,44,23,67,174,44,20,66,066,45,13,38,204,40*73
$GPGSV,3,2,09,04,33,304,42,31,29,226,43,11,26,144,44,25,21,050,41*7D
$GPGSV,3,3,09,01,16,044,39*4C
$GPRMC,145803.000,A,4853.6250,N,00223.3765,E,0.06,122.98,220885,,*04
$GPGGA,145804.000,4853.6251,N,00223.3765,E,1,09,1.0,93.0,M,,,,0000*3F
$GPGSA,A,3,11,20,04,13,31,25,24,01,23,,,,1.8,1.0,1.5*39
$GPRMC,145804.000,A,4853.6251,N,00223.3765,E,0.06,123.81,220885,,*0B
$GPGGA,145805.000,4853.6251,N,00223.3765,E,1,09,1.0,93.0,M,,,,0000*3E
$GPGSA,A,3,11,20,04,13,31,25,24,01,23,,,,1.8,1.0,1.5*39
$GPRMC,145805.000,A,4853.6251,N,00223.3765,E,0.07,127.74,220885,,*05
$GPGGA,145806.000,4853.6251,N,00223.3765,E,1,09,1.0,93.0,M,,,,0000*3D
$GPGSA,A,3,11,20,04,13,31,25,24,01,23,,,,1.8,1.0,1.5*39
$GPRMC,145806.000,A,4853.6251,N,00223.3765,E,0.07,126.92,220885,,*0F
$GPGGA,145807.000,4853.6251,N,00223.3766,E,1,09,1.0,93.0,M,,,,0000*3F
$GPGSA,A,3,11,20,04,13,31,25,24,01,23,,,,1.8,1.0,1.5*39
$GPRMC,145807.000,A,4853.6251,N,00223.3766,E,0.07,120.71,220885,,*06
$GPGGA,145808.000,4853.6251,N,00223.3766,E,1,09,1.0,93.0,M,,,,0000*30
$GPGSA,A,3,11,20,04,13,31,25,24,01,23,,,,1.8,1.0,1.5*39
$GPGSV,3,1,09,24,78,277,44,23,67,174,44,20,66,066,45,13,38,204,40*73
$GPGSV,3,2,09,04,33,304,42,31,29,226,43,11,26,144,44,25,21,050,41*7D
$GPGSV,3,3,09,01,16,044,38*4D
$GPRMC,145808.000,A,4853.6251,N,00223.3766,E,0.07,130.07,220885,,*09
$GPGGA,145809.000,4853.6251,N,00223.3766,E,1,09,1.0,93.0,M,,,,0000*31
$GPGSA,A,3,11,20,04,13,31,25,24,01,23,,,,1.8,1.0,1.5*39
$GPRMC,145809.000,A,4853.6251,N,00223.3766,E,0.07,124.99,220885,,*0A
$GPGGA,145810.000,4853.6251,N,00223.3766,E,1,09,1.0,93.0,M,,,,0000*39
$GPGSA,A,3,11,20,04,13,31,25,24,01,23,,,,1.7,1.0,1.5*36
$GPRMC,145810.000,A,4853.6251,N,00223.3766,E,0.08,127.92,220885,,*05
$GPGGA,145811.000,4853.6251,N,00223.3766,E,1,09,1.0,92.9,M,,,,0000*30
$GPGSA,A,3,11,20,04,13,31,25,24,01,23,,,,1.7,1.0,1.5*36
$GPRMC,145811.000,A,4853.6251,N,00223.3766,E,0.07,125.32,220885,,*03
$GPGGA,145812.000,4853.6251,N,00223.3766,E,1,09,1.0,92.9,M,,,,0000*33
$GPGSA,A,3,11,20,04,13,31,25,24,01,23,,,,1.7,1.0,1.5*36
$GPRMC,145812.000,A,4853.6251,N,00223.3766,E,0.07,136.60,220885,,*05
$GPGGA,145813.000,4853.6251,N,00223.3766,E,1,09,1.0,92.9,M,,,,0000*32
$GPGSA,A,3,11,20,04,13,31,25,24,01,23,,,,1.7,1.0,1.5*36
$GPGSV,3,1,09,24,78,277,44,23,67,174,44,20,66,066,45,13,38,204,40*73
$GPGSV,3,2,09,04,33,304,42,31,29,226,43,11,26,144,44,25,21,050,41*7D
$GPGSV,3,3,09,01,16,044,38*4D
$GPRMC,145813.000,A,4853.6251,N,00223.3766,E,0.08,127.76,220885,,*0C
$GPGGA,145814.000,4853.6251,N,00223.3766,E,1,09,1.0,92.9,M,,,,0000*35
$GPGSA,A,3,11,20,04,13,31,25,24,01,23,,,,1.7,1.0,1.5*36
$GPRMC,145814.000,A,4853.6251,N,00223.3766,E,0.06,126.39,220885,,*0F
$GPGGA,145815.000,4853.6251,N,00223.3766,E,1,09,1.0,92.9,M,,,,0000*34
$GPGSA,A,3,11,20,04,13,31,25,24,01,23,,,,1.7,1.0,1.5*36
$GPRMC,145815.000,A,4853.6251,N,00223.3766,E,0.08,128.80,220885,,*0C
$GPGGA,145816.000,4853.6251,N,00223.3766,E,1,09,1.0,92.9,M,,,,0000*37
$GPGSA,A,3,11,20,04,13,31,25,24,01,23,,,,1.7,1.0,1.5*36
$GPRMC,145816.000,A,4853.6251,N,00223.3766,E,0.06,127.35,220885,,*00
$GPGGA,145817.000,4853.6251,N,00223.3766,E,1,09,1.0,92.9,M,,,,0000*36
$GPGSA,A,3,11,20,04,13,31,25,24,01,23,,,,1.7,1.0,1.5*36
$GPRMC,145817.000,A,4853.6251,N,00223.3766,E,0.07,129.39,220885,,*02
$GPGGA,145818.000,4853.6251,N,00223.3766,E,1,09,1.0,92.9,M,,,,0000*39
$GPGSA,A,3,11,20,04,13,31,25,24,01,23,,,,1.7,1.0,1.5*36
$GPGSV,3,1,09,24,78,277,44,23,67,174,44,20,66,066,45,13,38,204,40*73
$GPGSV,3,2,09,04,33,304,43,31,29,226,43,11,26,144,44,25,21,050,41*7C
$GPGSV,3,3,09,01,16,044,38*4D
$GPRMC,145818.000,A,4853.6251,N,00223.3766,E,0.07,129.05,220885,,*02
$GPGGA,145819.000,4853.6251,N,00223.3766,E,1,09,1.0,92.9,M,,,,0000*38
$GPGSA,A,3,11,20,04,13,31,25,24,01,23,,,,1.7,1.0,1.5*36
$GPRMC,145819.000,A,4853.6251,N,00223.3766,E,0.07,137.01,220885,,*08
$GPGGA,145820.000,4853.6251,N,00223.3766,E,1,09,1.0,92.9,M,,,,0000*32
$GPGSA,A,3,11,20,04,13,31,25,24,01,23,,,,1.7,1.0,1.5*36
$GPRMC,145820.000,A,4853.6251,N,00223.3766,E,0.07,146.65,220885,,*06
$GPGGA,145821.000,4853.6251,N,00223.3766,E,1,09,1.0,92.8,M,,,,0000*32
$GPGSA,A,3,11,20,04,13,31,25,24,01,23,,,,1.7,1.0,1.5*36
$GPRMC,145821.000,A,4853.6251,N,00223.3766,E,0.07,141.66,220885,,*03
$GPGGA,145822.000,4853.6251,N,00223.3766,E,1,09,1.0,92.9,M,,,,0000*30
$GPGSA,A,3,11,20,04,13,31,25,24,01,23,,,,1.7,1.0,1.5*36
$GPRMC,145822.000,A,4853.6251,N,00223.3766,E,0.06,151.93,220885,,*0A
$GPGGA,145823.000,4853.6251,N,00223.3766,E,1,09,1.0,92.9,M,,,,0000*31
$GPGSA,A,3,11,20,04,13,31,25,24,01,23,,,,1.7,1.0,1.5*36
$GPGSV,3,1,09,24,78,277,44,23,67,174,44,20,66,066,45,13,38,204,40*73
$GPGSV,3,2,09,04,33,304,43,31,29,226,43,11,26,144,44,25,21,050,40*7D
$GPGSV,3,3,09,01,16,044,38*4D
$GPRMC,145823.000,A,4853.6251,N,00223.3766,E,0.08,144.46,220885,,*09
$GPGGA,145824.000,4853.6251,N,00223.3766,E,1,09,1.0,92.9,M,,,,0000*36
$GPGSA,A,3,11,20,04,13,31,25,24,01,23,,,,1.7,1.0,1.5*36
$GPRMC,145824.000,A,4853.6251,N,00223.3766,E,0.08,137.86,220885,,*06
$GPGGA,145825.000,4853.6251,N,00223.3766,E,1,09,1.0,92.9,M,,,,0000*37
$GPGSA,A,3,11,20,04,13,31,25,24,01,23,,,,1.7,1.0,1.5*36
$GPRMC,145825.000,A,4853.6251,N,00223.3766,E,0.07,150.42,220885,,*01
$GPGGA,145826.000,4853.6251,N,00223.3766,E,1,09,1.0,92.9,M,,,,0000*34
$GPGSA,A,3,11,20,04,13,31,25,24,01,23,,,,1.7,1.0,1.4*37
$GPRMC,145826.000,A,4853.6251,N,00223.3766,E,0.07,144.15,220885,,*05
$GPGGA,145827.000,4853.6251,N,00223.3766,E,1,09,1.0,92.9,M,,,,0000*35
$GPGSA,A,3,11,20,04,13,31,25,24,01,23,,,,1.7,1.0,1.4*37
$GPRMC,145827.000,A,4853.6251,N,00223.3766,E,0.07,141.77,220885,,*05
$GPGGA,145828.000,4853.6251,N,00223.3766,E,1,09,1.0,92.9,M,,,,0000*3A
$GPGSA,A,3,11,20,04,13,31,25,24,01,23,,,,1.7,1.0,1.4*37
$GPGSV,3,1,09,24,78,277,44,23,67,174,44,20,66,066,45,13,38,204,40*73
$GPGSV,3,2,09,04,33,304,43,31,29,226,43,11,26,144,44,25,21,050,40*7D
$GPGSV,3,3,09,01,16,044,38*4D
$GPRMC,145828.000,A,4853.6251,N,00223.3766,E,0.08,138.52,220885,,*0C
$GPGGA,145829.000,4853.6251,N,00223.3766,E,1,09,1.0,92.9,M,,,,0000*3B
$GPGSA,A,3,11,20,04,13,31,25,24,01,23,,,,1.7,1.0,1.4*37
$GPRMC,145829.000,A,4853.6251,N,00223.3766,E,0.07,151.45,220885,,*0B
$GPGGA,145830.000,4853.6251,N,00223.3766,E,1,09,1.0,92.9,M,,,,0000*33
$GPGSA,A,3,11,20,04,13,31,25,24,01,23,,,,1.7,1.0,1.4*37
$GPRMC,145830.000,A,4853.6251,N,00223.3766,E,0.08,151.25,220885,,*0A
$GPGGA,145831.000,4853.6251,N,00223.3766,E,1,09,1.0,92.9,M,,,,0000*32
$GPGSA,A,3,11,20,04,13,31,25,24,01,23,,,,1.7,1.0,1.4*37
$GPRMC,145831.000,A,4853.6251,N,00223.3766,E,0.06,139.04,220885,,*08
$GPGGA,145832.000,4853.6251,N,00223.3766,E,1,09,1.0,92.9,M,,,,0000*31
$GPGSA,A,3,11,20,04,13,31,25,24,01,23,,,,1.7,1.0,1.4*37
$GPRMC,145832.000,A,4853.6251,N,00223.3766,E,0.07,130.18,220885,,*0E
$GPGGA,145833.000,4853.6251,N,00223.3766,E,1,09,1.0,92.9,M,,,,0000*30
$GPGSA,A,3,11,20,04,13,31,25,24,01,23,,,,1.7,1.0,1.4*37
$GPGSV,3,1,09,24,78,277,44,23,67,174,45,20,66,066,45,13,38,204,40*72
$GPGSV,3,2,09,04,33,304,43,31,29,226,43,11,26,144,44,25,21,050,41*7C
$GPGSV,3,3,09,01,16,044,38*4D
$GPRMC,145833.000,A,4853.6251,N,00223.3766,E,0.08,134.55,220885,,*0D
