$GNRMC,,V,,,,,,,,,,N*4D
$GNVTG,,,,,,,,,N*2E
$GNGGA,,,,,,0,00,99.99,,,,,,*56
$GNGSA,A,1,,,,,,,,,,,,,99.99,99.99,99.99*2E
$GNGSA,A,1,,,,,,,,,,,,,99.99,99.99,99.99*2E
$GPGSV,1,1,00*79
$GLGSV,1,1,00*65
$GNGLL,,,,,,V,N*7A
$GNRMC,,V,,,,,,,,,,N*4D
$GNVTG,,,,,,,,,N*2E
$GNGGA,,,,,,0,00,99.99,,,,,,*56
$GNGSA,A,1,,,,,,,,,,,,,99.99,99.99,99.99*2E
$GNGSA,A,1,,,,,,,,,,,,,99.99,99.99,99.99*2E
$GPGSV,1,1,02,13,,,43,19,,,25*71
$GLGSV,1,1,00*65
$GNGLL,,,,,,V,N*7A
$GNRMC,,V,,,,,,,,,,N*4D
$GNVTG,,,,,,,,,N*2E
$GNGGA,,,,,,0,00,99.99,,,,,,*56
$GNGSA,A,1,,,,,,,,,,,,,99.99,99.99,99.99*2E
$GNGSA,A,1,,,,,,,,,,,,,99.99,99.99,99.99*2E
$GPGSV,1,1,02,13,,,43,19,,,23*77
$GLGSV,1,1,00*65
$GNGLL,,,,,,V,N*7A
$GNRMC,,V,,,,,,,,,,N*4D
$GNVTG,,,,,,,,,N*2E
$GNGGA,,,,,,0,00,99.99,,,,,,*56
$GNGSA,A,1,,,,,,,,,,,,,99.99,99.99,99.99*2E
$GNGSA,A,1,,,,,,,,,,,,,99.99,99.99,99.99*2E
$GPGSV,1,1,02,13,,,43,19,,,23*77
$GLGSV,1,1,00*65
$GNGLL,,,,,,V,N*7A
$GNRMC,,V,,,,,,,,,,N*4D
$GNVTG,,,,,,,,,N*2E
$GNGGA,,,,,,0,00,99.99,,,,,,*56
$GNGSA,A,1,,,,,,,,,,,,,99.99,99.99,99.99*2E
$GNGSA,A,1,,,,,,,,,,,,,99.99,99.99,99.99*2E
$GPGSV,1,1,02,13,,,43,19,,,21*75
$GLGSV,1,1,00*65
$GNGLL,,,,,,V,N*7A
$GNRMC,,V,,,,,,,,,,N*4D
$GNVTG,,,,,,,,,N*2E
$GNGGA,,,,,,0,00,99.99,,,,,,*56
$GNGSA,A,1,,,,,,,,,,,,,99.99,99.99,99.99*2E
$GNGSA,A,1,,,,,,,,,,,,,99.99,99.99,99.99*2E
$GPGSV,1,1,03,13,,,43,19,,,21,20,,,27*73
$GNGLL,,,,,,V,N*7A
$GNRMC,,V,,,,,,,,,,N*4D
$GNVTG,,,,,,,,,N*2E
$GNGGA,,,,,,0,00,99.99,,,,,,*56
$GNGSA,A,1,,,,,,,,,,,,,99.99,99.99,99.99*2E
$GNGSA,A,1,,,,,,,,,,,,,99.99,99.99,99.99*2E
$GPGSV,1,1,03,13,,,43,19,,,22,20,,,25*72
$GLGSV,1,1,00*65
$GNGLL,,,,,,V,N*7A
$GNRMC,092416.83,V,,,,,,,,,,N*60
$GNVTG,,,,,,,,,N*2E
$GNGGA,092416.83,,,,,0,00,99.99,,,,,,*7B
$GNGSA,A,1,,,,,,,,,,,,,99.99,99.99,99.99*2E
$GNGSA,A,1,,,,,,,,,,,,,99.99,99.99,99.99*2E
$GPGSV,1,1,03,13,,,43,19,,,22,20,,,23*74
$GLGSV,1,1,00*65
$GNGLL,,,,,092416.83,V,N*57
$GNRMC,092417.83,V,,,,,,,,,,N*61
$GNVTG,,,,,,,,,N*2E
$GNGGA,092417.83,,,,,0,00,99.99,,,,,,*7A
$GNGSA,A,1,,,,,,,,,,,,,99.99,99.99,99.99*2E
$GNGSA,A,1,,,,,,,,,,,,,99.99,99.99,99.99*2E
$GPGSV,1,1,03,13,,,43,19,,,21,20,,,20*74
$GLGSV,1,1,00*65
$GNGLL,,,,,092417.83,V,N*56
$GNRMC,092419.00,V,,,,,,,,,,N*64
$GNVTG,,,,,,,,,N*2E
$GNGGA,092419.00,,,,,0,00,99.99,,,,,,*7F
$GNGSA,A,1,,,,,,,,,,,,,99.99,99.99,99.99*2E
$GNGSA,A,1,,,,,,,,,,,,,99.99,99.99,99.99*2E
$GPGSV,1,1,04,05,,,48,13,,,43,20,,,16,30,,,44*77
$GLGSV,1,1,00*65
$GNGLL,,,,,092419.00,V,N*53
$GNRMC,092420.00,V,,,,,,,,,,N*6E
$GNVTG,,,,,,,,,N*2E
$GNGGA,092420.00,,,,,0,00,99.99,,,,,,*75
$GNGSA,A,1,,,,,,,,,,,,,99.99,99.99,99.99*2E
$GNGSA,A,1,,,,,,,,,,,,,99.99,99.99,99.99*2E
$GPGSV,1,1,04,05,,,48,13,,,43,20,,,13,30,,,44*72
$GLGSV,1,1,01,,,,34*63
$GNGLL,,,,,092420.00,V,N*59
$GNRMC,092421.00,V,,,,,,,,,,N*6F
$GNVTG,,,,,,,,,N*2E
$GNGGA,092421.00,,,,,0,00,99.99,,,,,,*74
$GNGSA,A,1,,,,,,,,,,,,,99.99,99.99,99.99*2E
$GNGSA,A,1,,,,,,,,,,,,,99.99,99.99,99.99*2E
$GPGSV,1,1,04,05,,,48,13,,,43,20,,,10,30,,,44*71
$GLGSV,1,1,01,,,,34*63
$GNGLL,,,,,092421.00,V,N*58
$GNRMC,092422.00,V,,,,,,,100317,,,N*68
$GNVTG,,,,,,,,,N*2E
$GNGGA,092422.00,,,,,0,00,99.99,,,,,,*77
$GNGSA,A,1,,,,,,,,,,,,,99.99,99.99,99.99*2E
$GNGSA,A,1,,,,,,,,,,,,,99.99,99.99,99.99*2E
$GPGSV,1,1,04,05,,,48,13,,,43,20,,,11,30,,,44*70
$GLGSV,1,1,01,,,,37*60
$GNGLL,,,,,092422.00,V,N*5B
$GNRMC,092423.00,V,,,,,,,100317,,,N*69
$GNVTG,,,,,,,,,N*2E
$GNGGA,092423.00,,,,,0,00,99.99,,,,,,*76
$GNGSA,A,1,,,,,,,,,,,,,99.99,99.99,99.99*2E
$GNGSA,A,1,,,,,,,,,,,,,99.99,99.99,99.99*2E
$GPGSV,2,1,05,02,,,25,05,,,48,13,,,43,20,,,08*7C
$GPGSV,2,2,05,30,,,44*7F
$GLGSV,1,1,01,,,,37*60
$GNGLL,,,,,092423.00,V,N*5A
$GNRMC,092424.00,V,,,,,,,100317,,,N*6E
$GNVTG,,,,,,,,,N*2E
$GNGGA,092424.00,,,,,0,00,99.99,,,,,,*71
$GNGSA,A,1,,,,,,,,,,,,,99.99,99.99,99.99*2E
$GNGSA,A,1,,,,,,,,,,,,,99.99,99.99,99.99*2E
$GPGSV,2,1,05,02,,,23,05,,,48,13,,,43,20,,,08*7A
$GPGSV,2,2,05,30,,,44*7F
$GLGSV,1,1,01,,,,37*60
$GNGLL,,,,,092424.00,V,N*5D
$GNRMC,092425.00,V,,,,,,,100317,,,N*6F
$GNVTG,,,,,,,,,N*2E
$GNGGA,092425.00,,,,,0,00,99.99,,,,,,*70
$GNGSA,A,1,,,,,,,,,,,,,99.99,99.99,99.99*2E
$GNGSA,A,1,,,,,,,,,,,,,99.99,99.99,99.99*2E
$GPGSV,2,1,05,02,,,21,05,,,48,13,,,43,20,,,08*78
$GPGSV,2,2,05,30,,,44*7F
$GLGSV,1,1,01,,,,37*60
$GNGLL,,,,,092425.00,V,N*5C
$GNRMC,092426.00,V,,,,,,,100317,,,N*6C
$GNVTG,,,,,,,,,N*2E
$GNGGA,092426.00,,,,,0,00,99.99,,,,,,*73
$GNGSA,A,1,,,,,,,,,,,,,99.99,99.99,99.99*2E
$GNGSA,A,1,,,,,,,,,,,,,99.99,99.99,99.99*2E
$GPGSV,2,1,05,02,,,19,05,,,48,13,,,43,20,,,08*73
$GPGSV,2,2,05,30,,,44*7F
$GLGSV,1,1,01,,,,37*60
$GNGLL,,,,,092426.00,V,N*5F
$GNRMC,092427.00,V,,,,,,,100317,,,N*6D
$GNVTG,,,,,,,,,N*2E
$GNGGA,092427.00,,,,,0,00,99.99,,,,,,*72
$GNGSA,A,1,,,,,,,,,,,,,99.99,99.99,99.99*2E
$GNGSA,A,1,,,,,,,,,,,,,99.99,99.99,99.99*2E
$GPGSV,2,1,05,02,,,19,05,,,48,13,,,43,20,,,08*73
$GPGSV,2,2,05,30,,,44*7F
$GLGSV,1,1,01,,,,37*60
$GNGLL,,,,,092427.00,V,N*5E
$GNRMC,092428.00,V,,,,,,,100317,,,N*62
$GNVTG,,,,,,,,,N*2E
$GNGGA,092428.00,,,,,0,00,99.99,,,,,,*7D
$GNGSA,A,1,,,,,,,,,,,,,99.99,99.99,99.99*2E
$GNGSA,A,1,,,,,,,,,,,,,99.99,99.99,99.99*2E
$GPGSV,2,1,05,02,,,19,05,,,48,13,,,43,20,,,08*73
$GPGSV,2,2,05,30,,,44*7F
$GLGSV,1,1,01,,,,37*60
$GNGLL,,,,,092428.00,V,N*51
$GNRMC,092429.00,V,,,,,,,100317,,,N*63
$GNVTG,,,,,,,,,N*2E
$GNGGA,092429.00,,,,,0,00,99.99,,,,,,*7C
$GNGSA,A,1,,,,,,,,,,,,,99.99,99.99,99.99*2E
$GNGSA,A,1,,,,,,,,,,,,,99.99,99.99,99.99*2E
$GPGSV,2,1,05,02,,,19,05,,,48,13,,,43,20,,,08*73
$GPGSV,2,2,05,30,,,43*78
$GLGSV,1,1,01,,,,37*60
$GNGLL,,,,,092429.00,V,N*50
$GNRMC,092430.00,V,,,,,,,100317,,,N*6B
$GNVTG,,,,,,,,,N*2E
$GNGGA,092430.00,,,,,0,00,99.99,,,,,,*74
$GNGSA,A,1,,,,,,,,,,,,,99.99,99.99,99.99*2E
$GNGSA,A,1,,,,,,,,,,,,,99.99,99.99,99.99*2E
$GPGSV,2,1,05,02,,,19,05,,,48,13,,,43,20,,,07*7C
$GPGSV,2,2,05,30,,,43*78
$GLGSV,1,1,01,,,,37*60
$GNGLL,,,,,092430.00,V,N*58
$GNRMC,092431.00,V,,,,,,,100317,,,N*6A
$GNVTG,,,,,,,,,N*2E
$GNGGA,092431.00,,,,,0,00,99.99,,,,,,*75
$GNGSA,A,1,,,,,,,,,,,,,99.99,99.99,99.99*2E
$GNGSA,A,1,,,,,,,,,,,,,99.99,99.99,99.99*2E
$GPGSV,2,1,05,02,,,19,05,,,48,13,,,43,20,,,07*7C
$GPGSV,2,2,05,30,,,43*78
$GLGSV,1,1,01,,,,37*60
$GNGLL,,,,,092431.00,V,N*59
$GNRMC,092432.01,V,,,,,,,100317,,,N*68
$GNVTG,,,,,,,,,N*2E
$GNGGA,092432.01,,,,,0,00,99.99,,,,,,*77
$GNGSA,A,1,,,,,,,,,,,,,99.99,99.99,99.99*2E
$GNGSA,A,1,,,,,,,,,,,,,99.99,99.99,99.99*2E
$GPGSV,2,1,05,02,,,19,05,,,48,13,,,43,20,,,07*7C
$GPGSV,2,2,05,30,,,43*78
$GLGSV,1,1,01,,,,37*60
$GNGLL,,,,,092432.01,V,N*5B
$GNRMC,092433.00,V,,,,,,,100317,,,N*68
$GNVTG,,,,,,,,,N*2E
$GNGGA,092433.00,,,,,0,00,99.99,,,,,,*77
$GNGSA,A,1,,,,,,,,,,,,,99.99,99.99,99.99*2E
$GNGSA,A,1,,,,,,,,,,,,,99.99,99.99,99.99*2E
$GPGSV,2,1,05,02,,,19,05,,,47,13,,,43,20,,,07*73
$GPGSV,2,2,05,30,,,43*78
$GLGSV,1,1,01,,,,37*60
$GNGLL,,,,,092433.00,V,N*5B
$GNRMC,092434.00,V,,,,,,,100317,,,N*6F
$GNVTG,,,,,,,,,N*2E
$GNGGA,092434.00,,,,,0,00,99.99,,,,,,*70
$GNGSA,A,1,,,,,,,,,,,,,99.99,99.99,99.99*2E
$GNGSA,A,1,,,,,,,,,,,,,99.99,99.99,99.99*2E
$GPGSV,2,1,06,02,,,19,03,,,25,05,,,47,13,,,43*71
$GPGSV,2,2,06,20,,,07,30,,,43*7E
$GLGSV,1,1,01,,,,37*60
$GNGLL,,,,,092434.00,V,N*5C
$GNRMC,092435.00,V,,,,,,,100317,,,N*6E
$GNVTG,,,,,,,,,N*2E
$GNGGA,092435.00,,,,,0,00,99.99,,,,,,*71
$GNGSA,A,1,,,,,,,,,,,,,99.99,99.99,99.99*2E
$GNGSA,A,1,,,,,,,,,,,,,99.99,99.99,99.99*2E
$GPGSV,2,1,05,02,,,19,03,,,22,05,,,47,13,,,43*75
$GPGSV,2,2,05,30,,,43*78
$GLGSV,1,1,01,,,,37*60
$GNGLL,,,,,092435.00,V,N*5D
$GNRMC,092436.00,V,,,,,,,100317,,,N*6D
$GNVTG,,,,,,,,,N*2E
$GNGGA,092436.00,,,,,0,00,99.99,,,,,,*72
$GNGSA,A,1,,,,,,,,,,,,,99.99,99.99,99.99*2E
$GNGSA,A,1,,,,,,,,,,,,,99.99,99.99,99.99*2E
$GPGSV,2,1,05,02,,,20,03,,,20,05,,,47,13,,,43*7D
$GPGSV,2,2,05,30,,,43*78
$GLGSV,1,1,01,,,,37*60
$GNGLL,,,,,092436.00,V,N*5E
$GNRMC,092437.00,V,,,,,,,100317,,,N*6C
$GNVTG,,,,,,,,,N*2E
$GNGGA,092437.00,,,,,0,00,99.99,,,,,,*73
$GNGSA,A,1,,,,,,,,,,,,,99.99,99.99,99.99*2E
$GNGSA,A,1,,,,,,,,,,,,,99.99,99.99,99.99*2E
$GPGSV,2,1,06,02,,,19,03,,,19,05,,,47,07,,,34*7B
$GPGSV,2,2,06,13,,,43,30,,,43*7E
$GLGSV,1,1,01,,,,38*6F
$GNGLL,,,,,092437.00,V,N*5F
$GNRMC,092438.00,V,,,,,,,100317,,,N*63
$GNVTG,,,,,,,,,N*2E
$GNGGA,092438.00,,,,,0,00,99.99,,,,,,*7C
$GNGSA,A,1,,,,,,,,,,,,,99.99,99.99,99.99*2E
$GNGSA,A,1,,,,,,,,,,,,,99.99,99.99,99.99*2E
$GPGSV,2,1,06,02,,,19,03,,,19,05,,,47,07,,,35*7A
$GPGSV,2,2,06,13,,,43,30,,,43*7E
$GLGSV,1,1,01,,,,37*60
$GNGLL,,,,,092438.00,V,N*50
$GNRMC,092439.00,V,,,,,,,100317,,,N*62
$GNVTG,,,,,,,,,N*2E
$GNGGA,092439.00,,,,,0,00,99.99,,,,,,*7D
$GNGSA,A,1,,,,,,,,,,,,,99.99,99.99,99.99*2E
$GNGSA,A,1,,,,,,,,,,,,,99.99,99.99,99.99*2E
$GPGSV,2,1,06,02,,,19,03,,,18,05,,,47,07,,,35*7B
$GPGSV,2,2,06,13,,,43,30,,,43*7E
$GLGSV,1,1,01,,,,38*6F
$GNGLL,,,,,092439.00,V,N*51
$GNRMC,092440.00,V,,,,,,,100317,,,N*6C
$GNVTG,,,,,,,,,N*2E
$GNGGA,092440.00,,,,,0,00,99.99,,,,,,*73
$GNGSA,A,1,,,,,,,,,,,,,99.99,99.99,99.99*2E
$GNGSA,A,1,,,,,,,,,,,,,99.99,99.99,99.99*2E
$GPGSV,2,1,06,02,,,20,03,,,18,05,,,47,07,,,35*71
$GPGSV,2,2,06,13,,,43,30,,,43*7E
$GLGSV,1,1,01,,,,37*60
$GNGLL,,,,,092440.00,V,N*5F
$GNRMC,092441.00,V,,,,,,,100317,,,N*6D
$GNVTG,,,,,,,,,N*2E
$GNGGA,092441.00,,,,,0,00,99.99,,,,,,*72
$GNGSA,A,1,,,,,,,,,,,,,99.99,99.99,99.99*2E
$GNGSA,A,1,,,,,,,,,,,,,99.99,99.99,99.99*2E
$GPGSV,2,1,06,02,,,20,03,,,19,05,,,47,07,,,36*73
$GPGSV,2,2,06,13,,,43,30,,,42*7F
$GLGSV,1,1,01,67,,,38*6E
$GNGLL,,,,,092441.00,V,N*5E
$GNRMC,092442.00,V,,,,,,,100317,,,N*6E
$GNVTG,,,,,,,,,N*2E
$GNGGA,092442.00,,,,,0,00,99.99,,,,,,*71
$GNGSA,A,1,,,,,,,,,,,,,99.99,99.99,99.99*2E
$GNGSA,A,1,,,,,,,,,,,,,99.99,99.99,99.99*2E
$GPGSV,2,1,06,02,,,19,03,,,20,05,,,47,07,,,36*73
$GPGSV,2,2,06,13,,,43,30,,,42*7F
$GLGSV,1,1,01,67,,,37*61
$GNGLL,,,,,092442.00,V,N*5D
$GNRMC,092440.99,V,,,,,,,100317,,,N*6C
$GNVTG,,,,,,,,,N*2E
$GNGGA,092440.99,,,,,0,00,99.99,,,,,,*73
$GNGSA,A,1,,,,,,,,,,,,,99.99,99.99,99.99*2E
$GNGSA,A,1,,,,,,,,,,,,,99.99,99.99,99.99*2E
$GPGSV,2,1,06,02,,,20,03,,,19,05,,,47,07,,,36*73
$GPGSV,2,2,06,13,,,43,30,,,42*7F
$GLGSV,1,1,01,67,,,38*6E
$GNGLL,,,,,092440.99,V,N*5F
$GNRMC,092442.00,V,,,,,,,100317,,,N*6E
$GNVTG,,,,,,,,,N*2E
$GNGGA,092442.00,,,,,0,00,99.99,,,,,,*71
$GNGSA,A,1,,,,,,,,,,,,,99.99,99.99,99.99*2E
$GNGSA,A,1,,,,,,,,,,,,,99.99,99.99,99.99*2E
$GPGSV,2,1,06,02,,,20,03,,,19,05,,,47,07,,,37*72
$GPGSV,2,2,06,13,,,43,30,,,42*7F
$GLGSV,1,1,01,67,,,37*61
$GNGLL,,,,,092442.00,V,N*5D
$GNRMC,092443.00,V,,,,,,,100317,,,N*6F
$GNVTG,,,,,,,,,N*2E
$GNGGA,092443.00,,,,,0,00,99.99,,,,,,*70
$GNGSA,A,1,,,,,,,,,,,,,99.99,99.99,99.99*2E
$GNGSA,A,1,,,,,,,,,,,,,99.99,99.99,99.99*2E
$GPGSV,2,1,07,02,,,19,03,,,19,05,,,47,07,,,37*79
$GPGSV,2,2,07,11,,,28,13,,,43,30,,,42*74
$GLGSV,1,1,01,67,,,38*6E
$GNGLL,,,,,092443.00,V,N*5C
$GNRMC,092444.00,V,,,,,,,100317,,,N*68
$GNVTG,,,,,,,,,N*2E
$GNGGA,092444.00,,,,,0,00,99.99,,,,,,*77
$GNGSA,A,1,,,,,,,,,,,,,99.99,99.99,99.99*2E
$GNGSA,A,1,,,,,,,,,,,,,99.99,99.99,99.99*2E
$GPGSV,2,1,06,02,,,20,03,,,19,05,,,47,07,,,37*72
$GPGSV,2,2,06,13,,,43,30,,,42*7F
$GLGSV,1,1,01,67,,,38*6E
$GNGLL,,,,,092444.00,V,N*5B
$GNRMC,092445.00,V,,,,,,,100317,,,N*69
$GNVTG,,,,,,,,,N*2E
$GNGGA,092445.00,,,,,0,00,99.99,,,,,,*76
$GNGSA,A,1,,,,,,,,,,,,,99.99,99.99,99.99*2E
$GNGSA,A,1,,,,,,,,,,,,,99.99,99.99,99.99*2E
$GPGSV,2,1,06,02,,,20,03,,,19,05,,,47,07,,,37*72
$GPGSV,2,2,06,13,,,43,30,,,42*7F
$GLGSV,1,1,01,67,,,38*6E
$GNGLL,,,,,092445.00,V,N*5A
$GNRMC,092446.00,V,,,,,,,100317,,,N*6A
$GNVTG,,,,,,,,,N*2E
$GNGGA,092446.00,,,,,0,00,99.99,,,,,,*75
$GNGSA,A,1,,,,,,,,,,,,,99.99,99.99,99.99*2E
$GNGSA,A,1,,,,,,,,,,,,,99.99,99.99,99.99*2E
$GPGSV,2,1,06,02,,,20,03,,,18,05,,,47,07,,,37*73
$GPGSV,2,2,06,13,,,43,30,,,42*7F
$GLGSV,1,1,01,67,,,38*6E
$GNGLL,,,,,092446.00,V,N*59
$GNRMC,092447.00,V,,,,,,,100317,,,N*6B
$GNVTG,,,,,,,,,N*2E
$GNGGA,092447.00,,,,,0,00,99.99,,,,,,*74
$GNGSA,A,1,,,,,,,,,,,,,99.99,99.99,99.99*2E
$GNGSA,A,1,,,,,,,,,,,,,99.99,99.99,99.99*2E
$GPGSV,2,1,06,02,,,19,03,,,19,05,,,47,07,,,37*78
$GPGSV,2,2,06,13,,,43,30,,,42*7F
$GLGSV,1,1,01,67,,,38*6E
$GNGLL,,,,,092447.00,V,N*58
$GNRMC,092448.00,A,4851.30739,N,00319.06718,E,0.112,,100317,,,A*6E
$GNVTG,,T,,M,0.112,N,0.208,K,A*35
$GNGGA,092448.00,4851.30739,N,00319.06718,E,1,04,2.52,127.6,M,46.4,M,,*41
$GNGSA,A,2,05,13,30,,,,,,,,,,2.71,2.52,0.99*18
$GNGSA,A,2,67,,,,,,,,,,,,2.71,2.52,0.99*1D
$GPGSV,2,1,07,02,,,19,03,,,19,05,59,293,47,07,,,36*4C
$GPGSV,2,2,07,13,24,268,43,28,11,149,,30,70,169,42*4B
$GLGSV,1,1,01,67,69,337,38*56
$GNGLL,4851.30739,N,00319.06718,E,092448.00,A,A*71
$GNRMC,092449.00,V,,,,,,,100317,,,N*65
$GNVTG,,,,,,,,,N*2E
$GNGGA,092449.00,,,,,0,04,5.87,,,,,,*44
$GNGSA,A,1,05,13,30,,,,,,,,,,10.24,5.87,8.39*25
$GNGSA,A,1,67,,,,,,,,,,,,10.24,5.87,8.39*20
$GPGSV,2,1,07,02,,,19,03,,,18,05,59,293,47,07,,,37*4C
$GPGSV,2,2,07,13,24,268,43,28,11,149,,30,70,169,42*4B
$GNGLL,,,,,092449.00,V,N*56
$GNRMC,092450.00,V,,,,,,,100317,,,N*6D
$GNVTG,,,,,,,,,N*2E
$GNGGA,092450.00,,,,,0,04,2.52,,,,,,*43
$GNGSA,A,1,05,13,30,,,,,,,,,,2.71,2.52,0.99*1B
$GNGSA,A,1,67,,,,,,,,,,,,2.71,2.52,0.99*1E
$GPGSV,3,1,09,02,,,19,03,,,19,05,59,293,47,07,,,37*42
$GPGSV,3,2,09,13,24,268,43,16,,,29,20,,,31,28,11,149,18*7D
$GPGSV,3,3,09,30,70,169,42*4C
$GLGSV,1,1,01,67,69,337,38*56
$GNGLL,,,,,092450.00,V,N*5E
$GNRMC,092451.00,V,,,,,,,100317,,,N*6C
$GNVTG,,,,,,,,,N*2E
$GNGGA,092451.00,,,,,0,04,5.86,,,,,,*4C
$GNGSA,A,1,05,13,30,,,,,,,,,,10.24,5.86,8.39*24
$GNGSA,A,1,67,,,,,,,,,,,,10.24,5.86,8.39*21
$GPGSV,2,1,08,02,,,19,03,,,19,05,59,293,47,07,,,37*42
$GPGSV,2,2,08,13,24,268,43,20,,,33,28,11,149,18,30,70,169,42*4F
$GLGSV,1,1,01,67,69,337,38*56
$GNGLL,,,,,092451.00,V,N*5F
$GNRMC,092452.00,A,4851.30768,N,00319.06769,E,0.325,,100317,,,A*61
$GNVTG,,T,,M,0.325,N,0.601,K,A*3E
$GNGGA,092452.00,4851.30768,N,00319.06769,E,1,04,5.86,127.5,M,46.4,M,,*45
$GNGSA,A,3,05,13,30,,,,,,,,,,10.24,5.86,8.39*26
$GNGSA,A,3,67,,,,,,,,,,,,10.24,5.86,8.39*23
$GPGSV,2,1,08,02,,,19,03,,,18,05,59,293,47,07,,,37*43
$GPGSV,2,2,08,13,24,268,43,20,,,33,28,11,149,17,30,70,169,42*40
$GLGSV,1,1,01,67,69,337,37*59
$GNGLL,4851.30768,N,00319.06769,E,092452.00,A,A*78
$GNRMC,092453.00,A,4851.30763,N,00319.06768,E,0.319,,100317,,,A*65
$GNVTG,,T,,M,0.319,N,0.591,K,A*3B
$GNGGA,092453.00,4851.30763,N,00319.06768,E,1,04,5.86,127.5,M,46.4,M,,*4E
$GNGSA,A,3,05,13,30,,,,,,,,,,10.23,5.86,8.39*21
$GNGSA,A,3,67,,,,,,,,,,,,10.23,5.86,8.39*24
$GPGSV,3,1,09,02,,,19,03,,,19,05,59,293,47,07,,,37*42
$GPGSV,3,2,09,13,24,268,43,19,,,27,20,,,33,28,11,149,16*70
$GPGSV,3,3,09,30,70,169,42*4C
$GLGSV,1,1,01,67,69,337,37*59
$GNGLL,4851.30763,N,00319.06768,E,092453.00,A,A*73
$GNRMC,092454.00,A,4851.30771,N,00319.06776,E,0.326,,100317,,,A*62
$GNVTG,,T,,M,0.326,N,0.605,K,A*39
$GNGGA,092454.00,4851.30771,N,00319.06776,E,1,04,5.86,127.5,M,46.4,M,,*45
$GNGSA,A,3,05,13,30,,,,,,,,,,10.23,5.86,8.39*21
$GNGSA,A,3,67,,,,,,,,,,,,10.23,5.86,8.39*24
$GPGSV,2,1,08,02,,,20,03,,,19,05,59,293,47,07,,,37*48
$GPGSV,2,2,08,13,24,268,43,20,,,33,28,11,149,18,30,70,169,42*4F
$GLGSV,1,1,01,67,69,337,38*56
$GNGLL,4851.30771,N,00319.06776,E,092454.00,A,A*78
$GNRMC,092455.00,A,4851.30779,N,00319.06790,E,0.292,,100317,,,A*6D
$GNVTG,,T,,M,0.292,N,0.542,K,A*37
$GNGGA,092455.00,4851.30779,N,00319.06790,E,1,04,5.86,127.4,M,46.4,M,,*45
$GNGSA,A,3,05,13,30,,,,,,,,,,10.23,5.86,8.39*21
$GNGSA,A,3,67,,,,,,,,,,,,10.23,5.86,8.39*24
$GPGSV,2,1,08,02,,,20,03,,,18,05,59,293,47,07,,,37*49
$GPGSV,2,2,08,13,24,268,43,20,,,33,28,11,149,17,30,70,169,42*40
$GLGSV,1,1,01,67,69,337,38*56
$GNGLL,4851.30779,N,00319.06790,E,092455.00,A,A*79
$GNRMC,092456.00,A,4851.30774,N,00319.06793,E,0.318,,100317,,,A*63
$GNVTG,,T,,M,0.318,N,0.589,K,A*33
$GNGGA,092456.00,4851.30774,N,00319.06793,E,1,04,5.86,127.3,M,46.4,M,,*4F
$GNGSA,A,3,05,13,30,,,,,,,,,,10.23,5.86,8.38*20
$GNGSA,A,3,67,,,,,,,,,,,,10.23,5.86,8.38*25
$GPGSV,2,1,08,02,,,21,03,,,19,05,59,293,47,07,,,37*49
$GPGSV,2,2,08,13,24,268,43,20,,,33,28,11,149,17,30,70,169,42*40
$GLGSV,1,1,01,67,69,337,38*56
$GNGLL,4851.30774,N,00319.06793,E,092456.00,A,A*74
$GNRMC,092457.00,A,4851.30770,N,00319.06799,E,0.291,,100317,,,A*6C
$GNVTG,,T,,M,0.291,N,0.539,K,A*38
$GNGGA,092457.00,4851.30770,N,00319.06799,E,1,04,5.86,127.2,M,46.4,M,,*41
$GNGSA,A,3,05,13,30,,,,,,,,,,10.23,5.86,8.38*20
$GNGSA,A,3,67,,,,,,,,,,,,10.23,5.86,8.38*25
$GPGSV,2,1,08,02,,,20,03,,,19,05,59,293,47,07,,,37*48
$GPGSV,2,2,08,13,24,268,43,20,,,33,28,11,149,18,30,70,169,42*4F
$GLGSV,1,1,01,67,69,337,38*56
$GNGLL,4851.30770,N,00319.06799,E,092457.00,A,A*7B
$GNRMC,092458.00,A,4851.30774,N,00319.06803,E,0.315,,100317,,,A*66
$GNVTG,,T,,M,0.315,N,0.583,K,A*34
$GNGGA,092458.00,4851.30774,N,00319.06803,E,1,04,5.86,127.1,M,46.4,M,,*45
$GNGSA,A,3,05,13,30,,,,,,,,,,10.22,5.86,8.38*21
$GNGSA,A,3,67,,,,,,,,,,,,10.22,5.86,8.38*24
$GPGSV,2,1,08,02,,,19,03,,,19,05,59,293,47,07,,,37*42
$GPGSV,2,2,08,13,24,268,43,20,,,33,28,11,149,18,30,70,169,42*4F
$GLGSV,1,1,01,67,69,337,38*56
$GNGLL,4851.30774,N,00319.06803,E,092458.00,A,A*7C
$GNRMC,092459.00,A,4851.30781,N,00319.06814,E,0.363,,100317,,,A*6A
$GNVTG,,T,,M,0.363,N,0.673,K,A*39
$GNGGA,092459.00,4851.30781,N,00319.06814,E,1,04,5.85,126.9,M,46.4,M,,*42
$GNGSA,A,3,05,13,30,,,,,,,,,,10.22,5.85,8.38*22
$GNGSA,A,3,67,,,,,,,,,,,,10.22,5.85,8.38*27
$GPGSV,2,1,08,02,,,20,03,,,19,05,59,293,47,07,,,37*48
$GPGSV,2,2,08,13,24,268,43,20,,,33,28,11,149,19,30,70,169,42*4E
$GLGSV,1,1,01,67,69,337,38*56
$GNGLL,4851.30781,N,00319.06814,E,092459.00,A,A*71
$GNRMC,092500.00,A,4851.31411,N,00319.07987,E,0.083,,100317,,,A*6B
$GNVTG,,T,,M,0.083,N,0.153,K,A*31
$GNGGA,092500.00,4851.31411,N,00319.07987,E,1,05,2.30,107.2,M,46.4,M,,*4E
$GNGSA,A,3,05,13,30,07,,,,,,,,,3.94,2.30,3.19*1B
$GNGSA,A,3,67,,,,,,,,,,,,3.94,2.30,3.19*19
$GPGSV,3,1,09,02,,,20,03,,,19,05,59,293,47,07,56,064,37*79
$GPGSV,3,2,09,13,24,268,43,20,,,33,26,,,27,28,11,149,19*73
$GPGSV,3,3,09,30,70,169,42*4C
$GLGSV,1,1,01,67,69,337,38*56
$GNGLL,4851.31411,N,00319.07987,E,092500.00,A,A*7D
$GNRMC,092501.00,A,4851.31428,N,00319.08013,E,0.091,,100317,,,A*68
$GNVTG,,T,,M,0.091,N,0.168,K,A*3A
$GNGGA,092501.00,4851.31428,N,00319.08013,E,1,05,2.30,106.7,M,46.4,M,,*4A
$GNGSA,A,3,05,13,30,07,,,,,,,,,3.94,2.30,3.19*1B
$GNGSA,A,3,67,,,,,,,,,,,,3.94,2.30,3.19*19
$GPGSV,3,1,09,02,,,19,03,,,19,05,59,293,47,07,56,064,37*73
$GPGSV,3,2,09,13,24,268,43,20,,,33,26,,,27,28,11,149,19*73
$GPGSV,3,3,09,30,70,169,42*4C
$GLGSV,1,1,01,67,69,337,38*56
$GNGLL,4851.31428,N,00319.08013,E,092501.00,A,A*7D
$GNRMC,092502.00,A,4851.31439,N,00319.08026,E,0.132,,100317,,,A*65
$GNVTG,,T,,M,0.132,N,0.244,K,A*3F
$GNGGA,092502.00,4851.31439,N,00319.08026,E,1,05,2.30,106.5,M,46.4,M,,*4D
$GNGSA,A,3,05,13,30,07,,,,,,,,,3.94,2.30,3.19*1B
$GNGSA,A,3,67,,,,,,,,,,,,3.94,2.30,3.19*19
$GPGSV,2,1,08,02,,,19,03,,,19,05,59,293,47,07,56,064,36*72
$GPGSV,2,2,08,13,24,268,43,20,,,33,28,11,149,19,30,70,169,42*4E
$GLGSV,1,1,01,67,69,337,38*56
$GNGLL,4851.31439,N,00319.08026,E,092502.00,A,A*78
$GNRMC,092503.00,A,4851.31449,N,00319.08032,E,0.128,,100317,,,A*6D
$GNVTG,,T,,M,0.128,N,0.237,K,A*30
$GNGGA,092503.00,4851.31449,N,00319.08032,E,1,05,2.30,106.4,M,46.4,M,,*4F
$GNGSA,A,3,05,13,30,07,,,,,,,,,3.94,2.30,3.19*1B
$GNGSA,A,3,67,,,,,,,,,,,,3.94,2.30,3.19*19
$GPGSV,2,1,08,02,,,20,03,,,19,05,59,293,47,07,56,064,36*78
$GPGSV,2,2,08,13,24,268,43,20,,,33,28,11,149,18,30,70,169,42*4F
$GLGSV,1,1,01,67,69,337,37*59
$GNGLL,4851.31449,N,00319.08032,E,092503.00,A,A*7B
$GNRMC,092504.00,A,4851.31462,N,00319.08042,E,0.124,,100317,,,A*68
$GNVTG,,T,,M,0.124,N,0.230,K,A*3B
$GNGGA,092504.00,4851.31462,N,00319.08042,E,1,05,2.30,106.2,M,46.4,M,,*40
$GNGSA,A,3,05,13,30,07,,,,,,,,,3.94,2.30,3.19*1B
$GNGSA,A,3,67,,,,,,,,,,,,3.94,2.30,3.19*19
$GPGSV,2,1,08,02,,,42,03,,,19,05,59,293,47,07,56,064,36*7C
$GPGSV,2,2,08,13,24,268,43,20,,,33,28,11,149,18,30,70,169,42*4F
$GLGSV,1,1,01,67,69,337,37*59
$GNGLL,4851.31462,N,00319.08042,E,092504.00,A,A*72
$GNRMC,092505.00,A,4851.31475,N,00319.08052,E,0.039,,100317,,,A*63
$GNVTG,,T,,M,0.039,N,0.072,K,A*32
$GNGGA,092505.00,4851.31475,N,00319.08052,E,1,05,2.30,106.1,M,46.4,M,,*45
$GNGSA,A,3,05,13,30,07,,,,,,,,,3.93,2.30,3.19*1C
$GNGSA,A,3,67,,,,,,,,,,,,3.93,2.30,3.19*1E
$GPGSV,2,1,07,03,,,19,05,59,293,47,07,56,064,36,13,24,268,43*48
$GPGSV,2,2,07,20,,,33,28,11,149,17,30,70,169,43*71
$GLGSV,1,1,01,67,69,337,37*59
$GNGLL,4851.31475,N,00319.08052,E,092505.00,A,A*74
$GNRMC,092506.00,A,4851.31493,N,00319.08064,E,0.079,,100317,,,A*69
$GNVTG,,T,,M,0.079,N,0.147,K,A*31
$GNGGA,092506.00,4851.31493,N,00319.08064,E,1,05,2.30,106.0,M,46.4,M,,*4A
$GNGSA,A,3,05,13,30,07,,,,,,,,,3.93,2.30,3.19*1C
$GNGSA,A,3,67,,,,,,,,,,,,3.93,2.30,3.19*1E
$GPGSV,2,1,07,03,,,19,05,59,293,47,07,56,064,36,13,24,268,43*48
$GPGSV,2,2,07,20,,,33,28,11,149,18,30,70,169,43*7E
$GLGSV,1,1,01,67,69,337,37*59
$GNGLL,4851.31493,N,00319.08064,E,092506.00,A,A*7A
$GNRMC,092507.00,A,4851.31511,N,00319.08076,E,0.044,,100317,,,A*6E
$GNVTG,,T,,M,0.044,N,0.082,K,A*37
$GNGGA,092507.00,4851.31511,N,00319.08076,E,1,05,2.30,105.7,M,46.4,M,,*47
$GNGSA,A,3,05,13,30,07,,,,,,,,,3.93,2.30,3.19*1C
$GNGSA,A,3,67,,,,,,,,,,,,3.93,2.30,3.19*1E
$GPGSV,2,1,08,02,,,24,03,,,18,05,59,293,47,07,56,064,35*7E
$GPGSV,2,2,08,13,24,268,43,20,,,33,28,11,149,18,30,70,169,43*4E
$GLGSV,1,1,01,67,69,338,38*59
$GNGLL,4851.31511,N,00319.08076,E,092507.00,A,A*73
$GNRMC,092508.00,A,4851.31529,N,00319.08088,E,0.033,,100317,,,A*6B
$GNVTG,,T,,M,0.033,N,0.061,K,A*3A
$GNGGA,092508.00,4851.31529,N,00319.08088,E,1,05,2.30,105.5,M,46.4,M,,*40
$GNGSA,A,3,05,13,30,07,,,,,,,,,3.93,2.30,3.19*1C
$GNGSA,A,3,67,,,,,,,,,,,,3.93,2.30,3.19*1E
$GPGSV,2,1,08,02,,,22,03,,,19,05,59,293,47,07,56,064,35*79
$GPGSV,2,2,08,13,24,268,43,20,,,33,28,11,149,17,30,70,169,43*41
$GLGSV,1,1,01,67,69,338,37*56
$GNGLL,4851.31529,N,00319.08088,E,092508.00,A,A*76
$GNRMC,092509.00,A,4851.31548,N,00319.08101,E,0.041,,100317,,,A*68
$GNVTG,,T,,M,0.041,N,0.075,K,A*3A
$GNGGA,092509.00,4851.31548,N,00319.08101,E,1,05,2.30,105.3,M,46.4,M,,*40
$GNGSA,A,3,05,13,30,07,,,,,,,,,3.93,2.30,3.19*1C
$GNGSA,A,3,67,,,,,,,,,,,,3.93,2.30,3.19*1E
$GPGSV,2,1,08,02,,,22,03,,,19,05,59,293,47,07,56,064,35*79
$GPGSV,2,2,08,13,24,268,43,20,,,33,28,11,149,18,30,70,169,43*4E
$GLGSV,1,1,01,67,69,338,37*56
$GNGLL,4851.31548,N,00319.08101,E,092509.00,A,A*70
$GNRMC,092510.00,A,4851.31567,N,00319.08111,E,0.015,,100317,,,A*6D
$GNVTG,,T,,M,0.015,N,0.028,K,A*33
$GNGGA,092510.00,4851.31567,N,00319.08111,E,1,05,2.30,105.0,M,46.4,M,,*47
$GNGSA,A,3,05,13,30,07,,,,,,,,,3.93,2.30,3.19*1C
$GNGSA,A,3,67,,,,,,,,,,,,3.93,2.30,3.19*1E
$GPGSV,3,1,09,02,,,20,03,,,18,05,59,293,47,07,56,064,35*7A
$GPGSV,3,2,09,13,24,268,43,20,,,33,28,11,149,17,30,70,169,43*41
$GPGSV,3,3,09,31,,,23*73
$GLGSV,1,1,01,67,69,338,37*56
$GNGLL,4851.31567,N,00319.08111,E,092510.00,A,A*74
$GNRMC,092511.00,A,4851.31584,N,00319.08124,E,0.006,,100317,,,A*65
$GNVTG,,T,,M,0.006,N,0.010,K,A*3A
$GNGGA,092511.00,4851.31584,N,00319.08124,E,1,05,2.30,104.7,M,46.4,M,,*4B
$GNGSA,A,3,05,13,30,07,,,,,,,,,3.93,2.30,3.19*1C
$GNGSA,A,3,67,,,,,,,,,,,,3.93,2.30,3.19*1E
$GPGSV,2,1,08,02,,,20,03,,,18,05,59,293,47,07,56,064,35*7A
$GPGSV,2,2,08,13,24,268,43,20,,,33,28,11,149,16,30,70,169,43*40
$GLGSV,1,1,01,67,69,338,37*56
$GNGLL,4851.31584,N,00319.08124,E,092511.00,A,A*7E
$GNRMC,092512.00,A,4851.31602,N,00319.08137,E,0.013,,100317,,,A*6D
$GNVTG,,T,,M,0.013,N,0.023,K,A*3E
$GNGGA,092512.00,4851.31602,N,00319.08137,E,1,05,2.30,104.4,M,46.4,M,,*44
$GNGSA,A,3,05,13,30,07,,,,,,,,,3.93,2.30,3.19*1C
$GNGSA,A,3,67,,,,,,,,,,,,3.93,2.30,3.19*1E
$GPGSV,3,1,09,02,,,20,03,,,17,05,59,293,47,06,07,195,*79
$GPGSV,3,2,09,07,56,064,35,13,24,268,43,20,,,33,28,11,149,17*4C
$GPGSV,3,3,09,30,70,169,43*4D
$GLGSV,1,1,01,67,69,338,37*56
$GNGLL,4851.31602,N,00319.08137,E,092512.00,A,A*72
$GNRMC,092513.00,A,4851.31621,N,00319.08151,E,0.017,,100317,,,A*69
$GNVTG,,T,,M,0.017,N,0.032,K,A*3A
$GNGGA,092513.00,4851.31621,N,00319.08151,E,1,05,2.30,104.1,M,46.4,M,,*41
$GNGSA,A,3,05,13,30,07,,,,,,,,,3.93,2.30,3.19*1C
$GNGSA,A,3,67,,,,,,,,,,,,3.93,2.30,3.19*1E
$GPGSV,3,1,09,02,,,20,03,,,18,05,59,292,47,06,07,195,*77
$GPGSV,3,2,09,07,56,064,35,13,24,268,43,20,,,32,28,11,149,17*4D
$GPGSV,3,3,09,30,70,169,44*4A
$GLGSV,1,1,01,67,69,338,38*59
$GNGLL,4851.31621,N,00319.08151,E,092513.00,A,A*72
$GNRMC,092514.00,A,4851.31636,N,00319.08163,E,0.028,,100317,,,A*65
$GNVTG,,T,,M,0.028,N,0.052,K,A*30
$GNGGA,092514.00,4851.31636,N,00319.08163,E,1,05,2.30,103.8,M,46.4,M,,*4F
$GNGSA,A,3,05,13,30,07,,,,,,,,,3.93,2.30,3.19*1C
$GNGSA,A,3,67,,,,,,,,,,,,3.93,2.30,3.19*1E
$GPGSV,3,1,09,02,,,26,03,,,18,05,59,292,47,06,07,195,*71
$GPGSV,3,2,09,07,56,064,35,13,24,268,43,20,,,33,28,11,149,17*4C
$GPGSV,3,3,09,30,70,169,44*4A
$GLGSV,1,1,01,67,69,338,38*59
$GNGLL,4851.31636,N,00319.08163,E,092514.00,A,A*72
$GNRMC,092515.00,A,4851.31647,N,00319.08180,E,0.006,,100317,,,A*63
$GNVTG,,T,,M,0.006,N,0.011,K,A*3B
$GNGGA,092515.00,4851.31647,N,00319.08180,E,1,05,2.30,103.4,M,46.4,M,,*49
$GNGSA,A,3,05,13,30,07,,,,,,,,,3.93,2.30,3.19*1C
$GNGSA,A,3,67,,,,,,,,,,,,3.93,2.30,3.19*1E
$GPGSV,3,1,09,02,,,26,03,,,17,05,59,292,47,06,07,195,*7E
$GPGSV,3,2,09,07,56,064,36,13,24,268,43,20,,,33,28,11,149,18*40
$GPGSV,3,3,09,30,70,169,44*4A
$GLGSV,1,1,01,67,69,338,37*56
$GNGLL,4851.31647,N,00319.08180,E,092515.00,A,A*78
$GNRMC,092516.00,A,4851.31656,N,00319.08195,E,0.025,,100317,,,A*65
$GNVTG,,T,,M,0.025,N,0.046,K,A*38
$GNGGA,092516.00,4851.31656,N,00319.08195,E,1,05,2.30,103.0,M,46.4,M,,*4A
$GNGSA,A,3,05,13,30,07,,,,,,,,,3.93,2.30,3.19*1C
$GNGSA,A,3,67,,,,,,,,,,,,3.93,2.30,3.19*1E
$GPGSV,3,1,09,02,,,24,03,,,18,05,59,292,47,06,07,195,*73
$GPGSV,3,2,09,07,56,064,36,13,24,268,43,20,,,33,28,11,149,18*40
$GPGSV,3,3,09,30,70,169,44*4A
$GLGSV,1,1,01,67,69,338,38*59
$GNGLL,4851.31656,N,00319.08195,E,092516.00,A,A*7F
$GNRMC,092517.00,A,4851.31664,N,00319.08210,E,0.019,,100317,,,A*64
$GNVTG,,T,,M,0.019,N,0.035,K,A*33
$GNGGA,092517.00,4851.31664,N,00319.08210,E,1,05,2.30,102.7,M,46.4,M,,*42
$GNGSA,A,3,05,13,30,07,,,,,,,,,3.93,2.30,3.19*1C
$GNGSA,A,3,67,,,,,,,,,,,,3.93,2.30,3.19*1E
$GPGSV,2,1,08,03,,,18,05,59,292,48,06,07,195,,07,56,064,36*4B
$GPGSV,2,2,08,13,24,268,42,20,,,33,28,11,149,18,30,70,169,44*48
$GLGSV,1,1,01,67,69,338,38*59
$GNGLL,4851.31664,N,00319.08210,E,092517.00,A,A*71
$GNRMC,092518.00,A,4851.31670,N,00319.08224,E,0.022,,100317,,,A*61
$GNVTG,,T,,M,0.022,N,0.041,K,A*38
$GNGGA,092518.00,4851.31670,N,00319.08224,E,1,05,2.30,102.4,M,46.4,M,,*4C
$GNGSA,A,3,05,13,30,07,,,,,,,,,3.93,2.30,3.19*1C
$GNGSA,A,3,67,,,,,,,,,,,,3.93,2.30,3.19*1E
$GPGSV,3,1,09,02,,,27,03,,,19,05,59,292,48,06,07,195,*7E
$GPGSV,3,2,09,07,56,064,36,13,24,268,42,20,,,33,28,11,149,19*40
$GPGSV,3,3,09,30,70,169,44*4A
$GLGSV,1,1,02,66,46,108,,67,69,338,38*61
$GNGLL,4851.31670,N,00319.08224,E,092518.00,A,A*7C
$GNRMC,092519.00,A,4851.31680,N,00319.08235,E,0.034,,100317,,,A*68
$GNVTG,,T,,M,0.034,N,0.063,K,A*3F
$GNGGA,092519.00,4851.31680,N,00319.08235,E,1,05,2.30,102.1,M,46.4,M,,*47
$GNGSA,A,3,05,13,30,07,,,,,,,,,3.93,2.30,3.19*1C
$GNGSA,A,3,67,,,,,,,,,,,,3.93,2.30,3.19*1E
$GPGSV,2,1,08,03,,,19,05,59,292,48,06,07,195,,07,56,064,36*4A
$GPGSV,2,2,08,13,24,268,42,20,,,33,28,11,149,18,30,70,169,44*48
$GLGSV,1,1,02,66,46,108,27,67,69,338,38*64
$GNGLL,4851.31680,N,00319.08235,E,092519.00,A,A*72
$GNRMC,092520.00,A,4851.31686,N,00319.08245,E,0.028,,100317,,,A*6E
$GNVTG,,T,,M,0.028,N,0.052,K,A*30
$GNGGA,092520.00,4851.31686,N,00319.08245,E,1,05,2.30,101.8,M,46.4,M,,*46
$GNGSA,A,3,05,13,30,07,,,,,,,,,3.93,2.30,3.19*1C
$GNGSA,A,3,67,,,,,,,,,,,,3.93,2.30,3.19*1E
$GPGSV,3,1,09,02,,,43,03,,,18,05,59,292,48,06,07,195,*7D
$GPGSV,3,2,09,07,56,064,36,13,24,268,42,20,,,33,28,11,149,19*40
$GPGSV,3,3,09,30,70,169,44*4A
$GLGSV,1,1,02,66,46,108,23,67,69,338,38*60
$GNGLL,4851.31686,N,00319.08245,E,092520.00,A,A*79
$GNRMC,092521.00,A,4851.31693,N,00319.08253,E,0.025,,100317,,,A*61
$GNVTG,,T,,M,0.025,N,0.046,K,A*38
$GNGGA,092521.00,4851.31693,N,00319.08253,E,1,05,2.30,101.5,M,46.4,M,,*49
$GNGSA,A,3,05,13,30,07,,,,,,,,,3.93,2.30,3.19*1C
$GNGSA,A,3,67,,,,,,,,,,,,3.93,2.30,3.19*1E
$GPGSV,3,1,09,02,,,38,03,,,17,05,59,292,48,06,07,195,*7E
$GPGSV,3,2,09,07,56,064,36,13,24,268,42,20,,,32,28,11,149,20*4B
$GPGSV,3,3,09,30,70,169,44*4A
$GLGSV,1,1,02,66,46,108,20,67,69,338,38*63
$GNGLL,4851.31693,N,00319.08253,E,092521.00,A,A*7B
$GNRMC,092522.00,A,4851.31701,N,00319.08260,E,0.036,,100317,,,A*6A
$GNVTG,,T,,M,0.036,N,0.067,K,A*39
$GNGGA,092522.00,4851.31701,N,00319.08260,E,1,05,2.30,101.3,M,46.4,M,,*46
$GNGSA,A,3,05,13,30,07,,,,,,,,,3.93,2.30,3.19*1C
$GNGSA,A,3,67,,,,,,,,,,,,3.93,2.30,3.19*1E
$GPGSV,3,1,09,02,,,25,03,,,18,05,59,292,48,06,07,195,*7D
$GPGSV,3,2,09,07,56,064,36,13,24,268,42,20,,,32,28,11,149,18*40
$GPGSV,3,3,09,30,70,169,44*4A
$GLGSV,1,1,02,66,46,108,22,67,69,338,38*61
$GNGLL,4851.31701,N,00319.08260,E,092522.00,A,A*72
$GNRMC,092523.00,A,4851.31712,N,00319.08264,E,0.035,,100317,,,A*6E
$GNVTG,,T,,M,0.035,N,0.065,K,A*38
$GNGGA,092523.00,4851.31712,N,00319.08264,E,1,05,2.30,101.2,M,46.4,M,,*40
$GNGSA,A,3,05,13,30,07,,,,,,,,,3.93,2.30,3.19*1C
$GNGSA,A,3,67,,,,,,,,,,,,3.93,2.30,3.19*1E
$GPGSV,2,1,08,02,,,46,05,59,292,48,06,07,195,,07,56,064,36*41
$GPGSV,2,2,08,13,24,268,42,20,,,32,28,11,149,18,30,70,169,44*49
$GLGSV,1,1,02,66,46,108,23,67,69,338,38*60
$GNGLL,4851.31712,N,00319.08264,E,092523.00,A,A*75
$GNRMC,092524.00,A,4851.31720,N,00319.08267,E,0.035,,100317,,,A*6B
$GNVTG,,T,,M,0.035,N,0.065,K,A*38
$GNGGA,092524.00,4851.31720,N,00319.08267,E,1,06,2.02,101.0,M,46.4,M,,*45
$GNGSA,A,3,05,13,20,30,07,,,,,,,,3.11,2.02,2.36*19
$GNGSA,A,3,67,,,,,,,,,,,,3.11,2.02,2.36*19
$GPGSV,2,1,08,02,,,46,05,59,292,48,06,07,195,,07,56,064,36*41
$GPGSV,2,2,08,13,24,268,42,20,11,312,32,28,11,149,19,30,70,169,44*78
$GLGSV,1,1,03,66,46,108,24,67,69,338,38,,,,13*64
$GNGLL,4851.31720,N,00319.08267,E,092524.00,A,A*70
$GNRMC,092525.00,A,4851.31730,N,00319.08270,E,0.053,,100317,,,A*6D
$GNVTG,,T,,M,0.053,N,0.098,K,A*3A
$GNGGA,092525.00,4851.31730,N,00319.08270,E,1,06,2.02,100.9,M,46.4,M,,*4B
$GNGSA,A,3,05,13,20,30,07,,,,,,,,3.11,2.02,2.36*19
$GNGSA,A,3,67,,,,,,,,,,,,3.11,2.02,2.36*19
$GPGSV,2,1,08,02,,,46,05,59,292,48,06,07,195,,07,56,064,36*41
$GPGSV,2,2,08,13,24,268,42,20,11,312,33,28,11,149,19,30,70,169,44*79
$GLGSV,1,1,03,66,46,108,24,67,69,338,38,,,,20*64
$GNGLL,4851.31730,N,00319.08270,E,092525.00,A,A*76
$GNRMC,092526.00,A,4851.31736,N,00319.08274,E,0.034,,100317,,,A*6D
$GNVTG,,T,,M,0.034,N,0.062,K,A*3E
$GNGGA,092526.00,4851.31736,N,00319.08274,E,1,06,2.02,100.7,M,46.4,M,,*44
$GNGSA,A,3,05,13,20,30,07,,,,,,,,3.11,2.02,2.36*19
$GNGSA,A,3,67,,,,,,,,,,,,3.11,2.02,2.36*19
$GPGSV,2,1,08,02,,,46,05,59,292,47,06,07,195,,07,56,064,36*4E
$GPGSV,2,2,08,13,24,268,42,20,11,312,32,28,11,149,20,30,70,169,44*72
$GLGSV,1,1,04,66,46,108,24,67,69,338,38,68,17,308,,,,,23*53
$GNGLL,4851.31736,N,00319.08274,E,092526.00,A,A*77
$GNRMC,092527.00,A,4851.31741,N,00319.08276,E,0.040,,100317,,,A*6D
$GNVTG,,T,,M,0.040,N,0.074,K,A*3A
$GNGGA,092527.00,4851.31741,N,00319.08276,E,1,06,2.02,100.6,M,46.4,M,,*46
$GNGSA,A,3,05,13,20,30,07,,,,,,,,3.11,2.02,2.36*19
$GNGSA,A,3,67,,,,,,,,,,,,3.11,2.02,2.36*19
$GPGSV,2,1,08,02,,,46,05,59,292,48,06,07,195,,07,56,064,36*41
$GPGSV,2,2,08,13,24,268,42,20,11,312,32,28,11,149,20,30,70,169,44*72
$GLGSV,1,1,04,66,46,108,23,67,69,338,38,68,17,308,31,,,,24*51
$GNGLL,4851.31741,N,00319.08276,E,092527.00,A,A*74
$GNRMC,092528.00,A,4851.31744,N,00319.08278,E,0.041,,100317,,,A*68
$GNVTG,,T,,M,0.041,N,0.076,K,A*39
$GNGGA,092528.00,4851.31744,N,00319.08278,E,1,06,2.03,100.5,M,46.4,M,,*40
$GNGSA,A,3,05,13,20,30,07,,,,,,,,3.11,2.03,2.36*18
$GNGSA,A,3,67,,,,,,,,,,,,3.11,2.03,2.36*18
$GPGSV,2,1,08,02,,,46,05,59,292,48,06,07,195,,07,56,064,36*41
$GPGSV,2,2,08,13,24,268,42,20,11,312,32,28,11,149,20,30,70,169,44*72
$GLGSV,1,1,04,66,46,108,23,67,69,338,38,68,17,308,30,,,,25*51
$GNGLL,4851.31744,N,00319.08278,E,092528.00,A,A*70
$GNRMC,092529.00,A,4851.31750,N,00319.08280,E,0.013,,100317,,,A*6C
$GNVTG,,T,,M,0.013,N,0.023,K,A*3E
$GNGGA,092529.00,4851.31750,N,00319.08280,E,1,06,2.03,100.4,M,46.4,M,,*42
$GNGSA,A,3,05,13,20,30,07,,,,,,,,3.11,2.03,2.36*18
$GNGSA,A,3,67,,,,,,,,,,,,3.11,2.03,2.36*18
$GPGSV,2,1,08,02,,,46,05,59,292,47,06,07,195,,07,56,064,36*4E
$GPGSV,2,2,08,13,24,268,42,20,11,312,32,28,11,149,21,30,70,169,44*73
$GLGSV,1,1,04,66,46,108,23,67,69,338,38,68,17,308,30,,,,25*51
$GNGLL,4851.31750,N,00319.08280,E,092529.00,A,A*73
$GNRMC,092530.00,A,4851.31759,N,00319.08281,E,0.035,,100317,,,A*68
$GNVTG,,T,,M,0.035,N,0.065,K,A*38
$GNGGA,092530.00,4851.31759,N,00319.08281,E,1,06,2.03,100.2,M,46.4,M,,*44
$GNGSA,A,3,05,13,20,30,07,,,,,,,,3.11,2.03,2.36*18
$GNGSA,A,3,67,,,,,,,,,,,,3.11,2.03,2.36*18
$GPGSV,2,1,08,02,,,46,05,59,292,47,06,07,195,,07,56,064,36*4E
$GPGSV,2,2,08,13,24,268,42,20,11,312,32,28,11,149,21,30,70,169,44*73
$GLGSV,1,1,04,66,46,108,23,67,69,338,38,68,17,308,31,,,,24*51
$GNGLL,4851.31759,N,00319.08281,E,092530.00,A,A*73
$GNRMC,092531.00,A,4851.31765,N,00319.08282,E,0.023,,100317,,,A*62
$GNVTG,,T,,M,0.023,N,0.042,K,A*3A
$GNGGA,092531.00,4851.31765,N,00319.08282,E,1,06,2.03,100.1,M,46.4,M,,*4A
$GNGSA,A,3,05,13,20,30,07,,,,,,,,3.11,2.03,2.36*18
$GNGSA,A,3,67,,,,,,,,,,,,3.11,2.03,2.36*18
$GPGSV,2,1,08,02,,,46,05,59,292,47,06,07,195,,07,56,064,36*4E
$GPGSV,2,2,08,13,24,268,42,20,11,312,32,28,11,149,20,30,70,169,44*72
$GLGSV,1,1,04,66,46,108,23,67,69,338,38,68,17,308,31,,,,25*50
$GNGLL,4851.31765,N,00319.08282,E,092531.00,A,A*7E
$GNRMC,092532.00,A,4851.31776,N,00319.08283,E,0.039,,100317,,,A*69
$GNVTG,,T,,M,0.039,N,0.072,K,A*32
$GNGGA,092532.00,4851.31776,N,00319.08283,E,1,06,2.03,99.9,M,46.4,M,,*73
$GNGSA,A,3,05,13,20,30,07,,,,,,,,3.11,2.03,2.36*18
$GNGSA,A,3,67,,,,,,,,,,,,3.11,2.03,2.36*18
$GPGSV,2,1,08,02,,,46,05,59,292,47,06,07,195,,07,56,064,36*4E
$GPGSV,2,2,08,13,24,268,42,20,11,312,32,28,11,149,21,30,70,169,44*73
$GLGSV,1,1,04,66,46,108,23,67,69,338,38,68,17,308,31,,,,25*50
$GNGLL,4851.31776,N,00319.08283,E,092532.00,A,A*7E
$GNRMC,092533.00,A,4851.31787,N,00319.08282,E,0.030,,100317,,,A*6E
$GNVTG,,T,,M,0.030,N,0.055,K,A*3E
$GNGGA,092533.00,4851.31787,N,00319.08282,E,1,06,2.03,99.7,M,46.4,M,,*73
$GNGSA,A,3,05,13,20,30,07,,,,,,,,3.11,2.03,2.36*18
$GNGSA,A,3,67,,,,,,,,,,,,3.11,2.03,2.36*18
$GPGSV,2,1,08,02,,,46,05,59,292,47,06,07,195,,07,56,064,36*4E
$GPGSV,2,2,08,13,24,268,42,20,11,312,32,28,11,149,20,30,70,169,44*72
$GLGSV,1,1,04,66,46,108,23,67,69,338,38,68,17,308,31,,,,25*50
$GNGLL,4851.31787,N,00319.08282,E,092533.00,A,A*70
$GNRMC,092534.00,A,4851.31795,N,00319.08283,E,0.008,,100317,,,A*60
$GNVTG,,T,,M,0.008,N,0.014,K,A*30
$GNGGA,092534.00,4851.31795,N,00319.08283,E,1,06,2.03,99.6,M,46.4,M,,*77
$GNGSA,A,3,05,13,20,30,07,,,,,,,,3.11,2.03,2.36*18
$GNGSA,A,3,67,,,,,,,,,,,,3.11,2.03,2.36*18
$GPGSV,2,1,08,02,,,46,05,59,292,47,06,07,195,,07,56,064,36*4E
$GPGSV,2,2,08,13,24,268,42,20,11,312,32,28,11,149,19,30,70,169,44*78
$GLGSV,1,1,04,66,46,108,24,67,70,338,38,68,17,308,31,,,,25*5F
$GNGLL,4851.31795,N,00319.08283,E,092534.00,A,A*75
$GNRMC,092535.00,A,4851.31803,N,00319.08283,E,0.020,,100317,,,A*6B
$GNVTG,,T,,M,0.020,N,0.038,K,A*34
$GNGGA,092535.00,4851.31803,N,00319.08283,E,1,06,2.03,99.4,M,46.4,M,,*74
$GNGSA,A,3,05,13,20,30,07,,,,,,,,3.11,2.03,2.36*18
$GNGSA,A,3,67,,,,,,,,,,,,3.11,2.03,2.36*18
$GPGSV,2,1,08,02,,,45,05,59,292,48,06,07,195,,07,56,064,36*42
$GPGSV,2,2,08,13,24,268,42,20,11,312,32,28,11,149,20,30,70,169,44*72
$GLGSV,1,1,04,66,46,108,24,67,70,338,38,68,18,308,31,,,,25*50
$GNGLL,4851.31803,N,00319.08283,E,092535.00,A,A*74
$GNRMC,092536.00,A,4851.31810,N,00319.08284,E,0.019,,100317,,,A*67
$GNVTG,,T,,M,0.019,N,0.036,K,A*30
$GNGGA,092536.00,4851.31810,N,00319.08284,E,1,06,2.03,99.3,M,46.4,M,,*75
$GNGSA,A,3,05,13,20,30,07,,,,,,,,3.11,2.03,2.36*18
$GNGSA,A,3,67,,,,,,,,,,,,3.11,2.03,2.36*18
$GPGSV,2,1,08,02,,,45,05,59,292,48,06,07,195,,07,56,064,36*42
$GPGSV,2,2,08,13,24,268,42,20,11,312,32,28,11,149,20,30,70,169,44*72
$GLGSV,1,1,04,66,46,108,24,67,70,338,38,68,18,308,31,,,,25*50
$GNGLL,4851.31810,N,00319.08284,E,092536.00,A,A*72
$GNRMC,092537.00,A,4851.31818,N,00319.08284,E,0.038,,100317,,,A*6D
$GNVTG,,T,,M,0.038,N,0.070,K,A*31
$GNGGA,092537.00,4851.31818,N,00319.08284,E,1,06,2.03,99.2,M,46.4,M,,*7D
$GNGSA,A,3,05,13,20,30,07,,,,,,,,3.11,2.03,2.36*18
$GNGSA,A,3,67,,,,,,,,,,,,3.11,2.03,2.36*18
$GPGSV,2,1,08,02,,,45,05,59,292,48,06,07,195,,07,56,064,36*42
$GPGSV,2,2,08,13,24,268,42,20,11,312,32,28,11,149,20,30,70,169,44*72
$GLGSV,1,1,04,66,46,108,24,67,70,338,38,68,18,308,31,,,,25*50
$GNGLL,4851.31818,N,00319.08284,E,092537.00,A,A*7B
$GNRMC,092538.00,A,4851.31824,N,00319.08287,E,0.030,,100317,,,A*66
$GNVTG,,T,,M,0.030,N,0.055,K,A*3E
$GNGGA,092538.00,4851.31824,N,00319.08287,E,1,07,1.99,99.1,M,46.4,M,,*7C
$GNGSA,A,3,05,13,20,30,07,,,,,,,,3.07,1.99,2.34*1D
$GNGSA,A,3,68,67,,,,,,,,,,,3.07,1.99,2.34*13
$GPGSV,2,1,08,02,,,45,05,59,292,48,06,07,195,,07,56,064,36*42
$GPGSV,2,2,08,13,24,268,42,20,11,312,32,28,11,149,21,30,70,169,44*73
$GLGSV,1,1,04,66,46,108,25,67,70,338,38,68,18,308,31,,,,24*50
$GNGLL,4851.31824,N,00319.08287,E,092538.00,A,A*78
$GNRMC,092539.00,A,4851.31829,N,00319.08287,E,0.027,,100317,,,A*6C
$GNVTG,,T,,M,0.027,N,0.050,K,A*3D
$GNGGA,092539.00,4851.31829,N,00319.08287,E,1,07,1.99,99.0,M,46.4,M,,*71
$GNGSA,A,3,05,13,20,30,07,,,,,,,,3.07,1.99,2.34*1D
$GNGSA,A,3,68,67,,,,,,,,,,,3.07,1.99,2.34*13
$GPGSV,2,1,08,02,,,45,05,59,292,48,06,07,195,,07,56,064,36*42
$GPGSV,2,2,08,13,24,268,42,20,11,312,32,28,11,149,21,30,70,169,44*73
$GLGSV,1,1,04,66,46,108,24,67,70,338,38,68,18,308,31,,,,25*50
$GNGLL,4851.31829,N,00319.08287,E,092539.00,A,A*74
$GNRMC,092540.00,A,4851.31833,N,00319.08287,E,0.016,,100317,,,A*6B
$GNVTG,,T,,M,0.016,N,0.030,K,A*39
$GNGGA,092540.00,4851.31833,N,00319.08287,E,1,07,1.99,98.9,M,46.4,M,,*7C
$GNGSA,A,3,05,13,20,30,07,,,,,,,,3.07,1.99,2.34*1D
$GNGSA,A,3,68,67,,,,,,,,,,,3.07,1.99,2.34*13
$GPGSV,2,1,08,02,,,45,05,59,292,48,06,07,195,,07,56,064,36*42
$GPGSV,2,2,08,13,24,268,42,20,11,312,31,28,11,149,21,30,70,169,44*70
$GLGSV,1,1,04,66,46,108,24,67,70,338,38,68,18,308,31,,,,25*50
$GNGLL,4851.31833,N,00319.08287,E,092540.00,A,A*71
$GNRMC,092541.00,A,4851.31837,N,00319.08287,E,0.005,,100317,,,A*6C
$GNVTG,,T,,M,0.005,N,0.009,K,A*31
$GNGGA,092541.00,4851.31837,N,00319.08287,E,1,07,1.99,98.8,M,46.4,M,,*78
$GNGSA,A,3,05,13,20,30,07,,,,,,,,3.07,1.99,2.34*1D
$GNGSA,A,3,68,67,,,,,,,,,,,3.07,1.99,2.34*13
$GPGSV,2,1,08,02,,,45,05,60,292,47,06,07,195,,07,56,064,36*47
$GPGSV,2,2,08,13,24,268,42,20,11,312,31,28,11,149,21,30,70,169,44*70
$GLGSV,1,1,03,66,46,108,24,67,70,338,38,68,18,308,31*50
$GNGLL,4851.31837,N,00319.08287,E,092541.00,A,A*74
$GNRMC,092542.00,A,4851.31836,N,00319.08289,E,0.046,,100317,,,A*67
$GNVTG,,T,,M,0.046,N,0.085,K,A*32
$GNGGA,092542.00,4851.31836,N,00319.08289,E,1,07,1.99,98.7,M,46.4,M,,*7B
$GNGSA,A,3,05,13,20,30,07,,,,,,,,3.07,1.99,2.34*1D
$GNGSA,A,3,68,67,,,,,,,,,,,3.07,1.99,2.34*13
$GPGSV,2,1,08,02,,,45,05,60,292,47,06,07,195,,07,56,064,36*47
$GPGSV,2,2,08,13,24,268,42,20,11,312,32,28,11,149,20,30,70,169,44*72
$GLGSV,1,1,03,66,46,108,24,67,70,338,38,68,18,308,31*50
$GNGLL,4851.31836,N,00319.08289,E,092542.00,A,A*78
$GNRMC,092543.00,A,4851.31834,N,00319.08291,E,0.026,,100317,,,A*6B
$GNVTG,,T,,M,0.026,N,0.049,K,A*34
$GNGGA,092543.00,4851.31834,N,00319.08291,E,1,07,1.99,98.7,M,46.4,M,,*71
$GNGSA,A,3,05,13,20,30,07,,,,,,,,3.07,1.99,2.34*1D
$GNGSA,A,3,68,67,,,,,,,,,,,3.07,1.99,2.34*13
$GPGSV,2,1,08,02,,,45,05,60,292,47,06,07,195,,07,56,064,36*47
$GPGSV,2,2,08,13,24,268,42,20,11,312,31,28,11,149,20,30,70,169,44*71
$GLGSV,1,1,03,66,46,108,25,67,70,338,38,68,18,308,31*51
$GNGLL,4851.31834,N,00319.08291,E,092543.00,A,A*72
$GNRMC,092544.00,A,4851.31831,N,00319.08292,E,0.025,,100317,,,A*69
$GNVTG,,T,,M,0.025,N,0.046,K,A*38
$GNGGA,092544.00,4851.31831,N,00319.08292,E,1,07,1.99,98.6,M,46.4,M,,*71
$GNGSA,A,3,05,13,20,30,07,,,,,,,,3.07,1.99,2.34*1D
$GNGSA,A,3,68,67,,,,,,,,,,,3.07,1.99,2.34*13
$GPGSV,2,1,08,02,,,45,05,60,292,47,06,07,195,,07,56,064,36*47
$GPGSV,2,2,08,13,24,268,42,20,11,312,31,28,11,149,19,30,70,169,44*7B
$GLGSV,1,1,03,66,46,108,25,67,70,338,38,68,18,308,31*51
$GNGLL,4851.31831,N,00319.08292,E,092544.00,A,A*73
$GNRMC,092545.00,A,4851.31829,N,00319.08293,E,0.014,,100317,,,A*62
$GNVTG,,T,,M,0.014,N,0.027,K,A*3D
$GNGGA,092545.00,4851.31829,N,00319.08293,E,1,07,1.99,98.5,M,46.4,M,,*7B
$GNGSA,A,3,05,13,20,30,07,,,,,,,,3.07,1.99,2.35*1C
$GNGSA,A,3,68,67,,,,,,,,,,,3.07,1.99,2.35*12
$GPGSV,2,1,08,02,,,45,05,60,292,48,06,07,195,,07,56,064,36*48
$GPGSV,2,2,08,13,24,268,42,20,11,312,31,28,11,149,18,30,70,169,44*7A
$GLGSV,1,1,03,66,46,108,24,67,70,338,38,68,18,308,31*50
$GNGLL,4851.31829,N,00319.08293,E,092545.00,A,A*7A
$GNRMC,092546.00,A,4851.31826,N,00319.08296,E,0.002,,100317,,,A*6C
$GNVTG,,T,,M,0.002,N,0.003,K,A*3C
$GNGGA,092546.00,4851.31826,N,00319.08296,E,1,07,1.99,98.4,M,46.4,M,,*73
$GNGSA,A,3,05,13,20,30,07,,,,,,,,3.07,1.99,2.35*1C
$GNGSA,A,3,68,67,,,,,,,,,,,3.07,1.99,2.35*12
$GPGSV,2,1,08,02,,,45,05,60,292,47,06,07,195,,07,56,064,37*46
$GPGSV,2,2,08,13,24,268,42,20,11,312,31,28,11,149,17,30,70,169,43*72
$GLGSV,1,1,03,66,46,108,25,67,70,338,38,68,18,308,31*51
$GNGLL,4851.31826,N,00319.08296,E,092546.00,A,A*73
$GNRMC,092547.00,A,4851.31824,N,00319.08296,E,0.030,,100317,,,A*6E
$GNVTG,,T,,M,0.030,N,0.056,K,A*3D
$GNGGA,092547.00,4851.31824,N,00319.08296,E,1,07,1.99,98.3,M,46.4,M,,*77
$GNGSA,A,3,05,13,20,30,07,,,,,,,,3.08,1.99,2.35*13
$GNGSA,A,3,68,67,,,,,,,,,,,3.08,1.99,2.35*1D
$GPGSV,2,1,08,02,,,45,05,60,292,47,06,07,195,,07,56,064,37*46
$GPGSV,2,2,08,13,24,268,41,20,11,312,31,28,11,149,18,30,70,169,43*7E
$GLGSV,1,1,03,66,46,108,25,67,70,338,38,68,18,308,31*51
$GNGLL,4851.31824,N,00319.08296,E,092547.00,A,A*70
$GNRMC,092548.00,A,4851.31821,N,00319.08298,E,0.025,,100317,,,A*6E
$GNVTG,,T,,M,0.025,N,0.046,K,A*38
$GNGGA,092548.00,4851.31821,N,00319.08298,E,1,07,1.99,98.3,M,46.4,M,,*73
$GNGSA,A,3,05,13,20,30,07,,,,,,,,3.08,1.99,2.35*13
$GNGSA,A,3,68,67,,,,,,,,,,,3.08,1.99,2.35*1D
$GPGSV,2,1,08,02,,,45,05,60,292,47,06,07,195,,07,56,064,37*46
$GPGSV,2,2,08,13,24,268,41,20,11,312,31,28,11,149,18,30,70,168,44*78
$GLGSV,1,1,03,66,46,108,24,67,70,338,38,68,18,308,31*50
$GNGLL,4851.31821,N,00319.08298,E,092548.00,A,A*74
$GNRMC,092549.00,A,4851.31822,N,00319.08300,E,0.024,,100317,,,A*6D
$GNVTG,,T,,M,0.024,N,0.044,K,A*3B
$GNGGA,092549.00,4851.31822,N,00319.08300,E,1,07,1.99,98.2,M,46.4,M,,*70
$GNGSA,A,3,05,13,20,30,07,,,,,,,,3.08,1.99,2.35*13
$GNGSA,A,3,68,67,,,,,,,,,,,3.08,1.99,2.35*1D
$GPGSV,2,1,08,02,,,45,05,60,292,47,06,07,195,,07,56,064,37*46
$GPGSV,2,2,08,13,24,268,41,20,11,312,31,28,11,149,19,30,70,168,44*79
$GLGSV,1,1,03,66,46,108,24,67,70,338,38,68,18,308,31*50
$GNGLL,4851.31822,N,00319.08300,E,092549.00,A,A*76
$GNRMC,092550.00,A,4851.31823,N,00319.08299,E,0.028,,100317,,,A*69
$GNVTG,,T,,M,0.028,N,0.051,K,A*33
$GNGGA,092550.00,4851.31823,N,00319.08299,E,1,07,1.99,98.2,M,46.4,M,,*78
$GNGSA,A,3,05,13,20,30,07,,,,,,,,3.08,1.99,2.35*13
$GNGSA,A,3,68,67,,,,,,,,,,,3.08,1.99,2.35*1D
$GPGSV,2,1,08,02,,,45,05,60,292,47,06,07,195,,07,56,064,37*46
$GPGSV,2,2,08,13,24,268,41,20,11,312,31,28,11,149,20,30,70,168,44*73
$GLGSV,1,1,03,66,46,108,23,67,70,338,38,68,18,308,31*57
$GNGLL,4851.31823,N,00319.08299,E,092550.00,A,A*7E
$GNRMC,092551.00,A,4851.31824,N,00319.08299,E,0.026,,100317,,,A*61
$GNVTG,,T,,M,0.026,N,0.048,K,A*35
$GNGGA,092551.00,4851.31824,N,00319.08299,E,1,07,1.99,98.2,M,46.4,M,,*7E
$GNGSA,A,3,05,13,20,30,07,,,,,,,,3.08,1.99,2.35*13
$GNGSA,A,3,68,67,,,,,,,,,,,3.08,1.99,2.35*1D
$GPGSV,2,1,08,02,,,45,05,60,292,47,06,07,195,,07,56,064,37*46
$GPGSV,2,2,08,13,24,268,41,20,11,312,31,28,11,149,20,30,70,168,43*74
$GLGSV,1,1,03,66,46,108,22,67,70,338,38,68,18,308,31*56
$GNGLL,4851.31824,N,00319.08299,E,092551.00,A,A*78
$GNRMC,092552.00,A,4851.31826,N,00319.08299,E,0.018,,100317,,,A*6D
$GNVTG,,T,,M,0.018,N,0.033,K,A*34
$GNGGA,092552.00,4851.31826,N,00319.08299,E,1,07,1.99,98.2,M,46.4,M,,*7F
$GNGSA,A,3,05,13,20,30,07,,,,,,,,3.08,1.99,2.35*13
$GNGSA,A,3,68,67,,,,,,,,,,,3.08,1.99,2.35*1D
$GPGSV,2,1,08,02,,,45,05,60,292,47,06,07,195,,07,56,064,37*46
$GPGSV,2,2,08,13,24,268,41,20,11,312,31,28,11,149,20,30,70,168,44*73
$GLGSV,1,1,03,66,46,108,22,67,70,338,39,68,18,308,31*57
$GNGLL,4851.31826,N,00319.08299,E,092552.00,A,A*79
$GNRMC,092553.00,A,4851.31828,N,00319.08299,E,0.007,,100317,,,A*6C
$GNVTG,,T,,M,0.007,N,0.013,K,A*38
$GNGGA,092553.00,4851.31828,N,00319.08299,E,1,07,1.99,98.1,M,46.4,M,,*73
$GNGSA,A,3,05,13,20,30,07,,,,,,,,3.08,1.99,2.35*13
$GNGSA,A,3,68,67,,,,,,,,,,,3.08,1.99,2.35*1D
$GPGSV,2,1,08,02,,,45,05,60,292,47,06,07,195,,07,56,064,37*46
$GPGSV,2,2,08,13,24,268,41,20,11,312,31,28,11,149,20,30,70,168,43*74
$GLGSV,1,1,04,66,46,108,22,67,70,338,39,68,18,308,31,,,,23*51
$GNGLL,4851.31828,N,00319.08299,E,092553.00,A,A*76
$GNRMC,092554.00,A,4851.31858,N,00319.08303,E,0.042,,100317,,,A*6F
$GNVTG,,T,,M,0.042,N,0.077,K,A*3B
$GNGGA,092554.00,4851.31858,N,00319.08303,E,1,08,1.60,98.5,M,46.4,M,,*7C
$GNGSA,A,3,02,05,13,20,30,07,,,,,,,2.65,1.60,2.11*1B
$GNGSA,A,3,68,67,,,,,,,,,,,2.65,1.60,2.11*17
$GPGSV,2,1,08,02,27,233,45,05,60,292,47,06,07,195,,07,56,064,37*71
$GPGSV,2,2,08,13,24,268,41,20,11,312,31,28,11,149,20,30,70,168,43*74
$GLGSV,1,1,04,66,46,108,23,67,70,338,38,68,18,308,31,,,,24*56
$GNGLL,4851.31858,N,00319.08303,E,092554.00,A,A*74
$GNRMC,092555.00,A,4851.31878,N,00319.08304,E,0.055,,100317,,,A*6D
$GNVTG,,T,,M,0.055,N,0.101,K,A*3D
$GNGGA,092555.00,4851.31878,N,00319.08304,E,1,08,1.60,98.8,M,46.4,M,,*75
$GNGSA,A,3,02,05,13,20,30,07,,,,,,,2.65,1.60,2.11*1B
$GNGSA,A,3,68,67,,,,,,,,,,,2.65,1.60,2.11*17
$GPGSV,2,1,08,02,27,233,45,05,60,292,47,06,07,195,,07,56,064,37*71
$GPGSV,2,2,08,13,24,268,41,20,11,312,31,28,11,149,21,30,70,168,44*72
$GLGSV,1,1,04,66,46,108,23,67,70,338,39,68,18,308,31,,,,24*57
$GNGLL,4851.31878,N,00319.08304,E,092555.00,A,A*70
$GNRMC,092556.00,A,4851.31893,N,00319.08305,E,0.060,,100317,,,A*6C
$GNVTG,,T,,M,0.060,N,0.111,K,A*3A
$GNGGA,092556.00,4851.31893,N,00319.08305,E,1,08,1.60,98.9,M,46.4,M,,*73
$GNGSA,A,3,02,05,13,20,30,07,,,,,,,2.65,1.60,2.11*1B
$GNGSA,A,3,68,67,,,,,,,,,,,2.65,1.60,2.11*17
$GPGSV,2,1,08,02,27,233,45,05,60,292,47,06,07,195,,07,56,064,37*71
$GPGSV,2,2,08,13,24,268,41,20,11,312,31,28,11,149,21,30,70,168,44*72
$GLGSV,1,1,04,66,46,108,23,67,70,338,39,68,18,308,31,,,,24*57
$GNGLL,4851.31893,N,00319.08305,E,092556.00,A,A*77
$GNRMC,092557.00,A,4851.31906,N,00319.08307,E,0.037,,100317,,,A*60
$GNVTG,,T,,M,0.037,N,0.069,K,A*36
$GNGGA,092557.00,4851.31906,N,00319.08307,E,1,08,1.60,99.1,M,46.4,M,,*74
$GNGSA,A,3,02,05,13,20,30,07,,,,,,,2.65,1.60,2.11*1B
$GNGSA,A,3,68,67,,,,,,,,,,,2.65,1.60,2.11*17
$GPGSV,2,1,08,02,27,233,45,05,60,292,47,06,07,195,,07,56,064,37*71
$GPGSV,2,2,08,13,24,268,41,20,11,312,31,28,11,149,21,30,70,168,44*72
$GLGSV,1,1,04,66,46,108,23,67,70,338,38,68,18,308,31,,,,24*56
$GNGLL,4851.31906,N,00319.08307,E,092557.00,A,A*79
$GNRMC,092558.00,A,4851.31916,N,00319.08308,E,0.020,,100317,,,A*67
$GNVTG,,T,,M,0.020,N,0.036,K,A*3A
$GNGGA,092558.00,4851.31916,N,00319.08308,E,1,08,1.60,99.2,M,46.4,M,,*76
$GNGSA,A,3,02,05,13,20,30,07,,,,,,,2.65,1.60,2.11*1B
$GNGSA,A,3,68,67,,,,,,,,,,,2.65,1.60,2.11*17
$GPGSV,2,1,08,02,27,233,45,05,60,292,47,06,07,195,,07,56,064,37*71
$GPGSV,2,2,08,13,24,268,41,20,11,312,31,28,11,149,21,30,70,168,44*72
$GLGSV,1,1,04,66,46,108,23,67,70,338,38,68,18,308,31,,,,25*57
$GNGLL,4851.31916,N,00319.08308,E,092558.00,A,A*78
$GNRMC,092559.00,A,4851.31924,N,00319.08308,E,0.035,,100317,,,A*63
$GNVTG,,T,,M,0.035,N,0.065,K,A*38
$GNGGA,092559.00,4851.31924,N,00319.08308,E,1,08,1.60,99.3,M,46.4,M,,*77
$GNGSA,A,3,02,05,13,20,30,07,,,,,,,2.65,1.60,2.11*1B
$GNGSA,A,3,68,67,,,,,,,,,,,2.65,1.60,2.11*17
$GPGSV,2,1,08,02,27,233,45,05,60,292,47,06,07,195,,07,56,064,37*71
$GPGSV,2,2,08,13,24,268,41,20,11,312,31,28,11,149,21,30,70,168,44*72
$GLGSV,1,1,04,66,46,108,23,67,70,338,39,68,18,308,31,,,,25*56
$GNGLL,4851.31924,N,00319.08308,E,092559.00,A,A*78
$GNRMC,092600.00,A,4851.31930,N,00319.08306,E,0.024,,100317,,,A*67
$GNVTG,,T,,M,0.024,N,0.044,K,A*3B
$GNGGA,092600.00,4851.31930,N,00319.08306,E,1,08,1.60,99.4,M,46.4,M,,*74
$GNGSA,A,3,02,05,13,20,30,07,,,,,,,2.65,1.60,2.11*1B
$GNGSA,A,3,68,67,,,,,,,,,,,2.65,1.60,2.11*17
$GPGSV,2,1,08,02,27,233,45,05,60,292,47,06,07,195,,07,56,064,37*71
$GPGSV,2,2,08,13,24,268,41,20,11,312,30,28,11,149,20,30,70,168,44*72
$GLGSV,1,1,04,66,46,108,23,67,70,338,39,68,18,308,31,,,,25*56
$GNGLL,4851.31930,N,00319.08306,E,092600.00,A,A*7C
$GNRMC,092601.00,A,4851.31937,N,00319.08303,E,0.034,,100317,,,A*65
$GNVTG,,T,,M,0.034,N,0.063,K,A*3F
$GNGGA,092601.00,4851.31937,N,00319.08303,E,1,08,1.60,99.5,M,46.4,M,,*76
$GNGSA,A,3,02,05,13,20,30,07,,,,,,,2.65,1.60,2.11*1B
$GNGSA,A,3,68,67,,,,,,,,,,,2.65,1.60,2.11*17
$GPGSV,2,1,08,02,27,233,45,05,60,292,47,06,07,195,,07,56,064,37*71
$GPGSV,2,2,08,13,24,268,41,20,11,312,30,28,11,149,20,30,70,168,44*72
$GLGSV,1,1,04,66,46,108,24,67,70,338,38,68,18,308,31,,,,25*50
$GNGLL,4851.31937,N,00319.08303,E,092601.00,A,A*7F
$GNRMC,092602.00,A,4851.31941,N,00319.08299,E,0.082,,100317,,,A*68
$GNVTG,,T,,M,0.082,N,0.151,K,A*32
$GNGGA,092602.00,4851.31941,N,00319.08299,E,1,08,1.60,99.6,M,46.4,M,,*75
$GNGSA,A,3,02,05,13,20,30,07,,,,,,,2.65,1.60,2.11*1B
$GNGSA,A,3,68,67,,,,,,,,,,,2.65,1.60,2.11*17
$GPGSV,2,1,08,02,27,233,45,05,60,292,47,06,07,195,,07,56,064,37*71
$GPGSV,2,2,08,13,24,268,40,20,11,312,30,28,11,149,21,30,70,168,43*75
$GLGSV,1,1,03,66,46,108,23,67,70,338,39,68,18,308,31*56
$GNGLL,4851.31941,N,00319.08299,E,092602.00,A,A*7F
$GNRMC,092603.00,A,4851.31944,N,00319.08297,E,0.042,,100317,,,A*6E
$GNVTG,,T,,M,0.042,N,0.078,K,A*34
$GNGGA,092603.00,4851.31944,N,00319.08297,E,1,08,1.60,99.7,M,46.4,M,,*7E
$GNGSA,A,3,02,05,13,20,30,07,,,,,,,2.65,1.60,2.11*1B
$GNGSA,A,3,68,67,,,,,,,,,,,2.65,1.60,2.11*17
$GPGSV,2,1,08,02,27,233,45,05,60,292,47,06,07,195,,07,56,064,37*71
$GPGSV,2,2,08,13,24,268,40,20,11,312,31,28,11,149,21,30,70,168,44*73
$GLGSV,1,1,03,66,46,108,23,67,70,338,39,68,18,308,31*56
$GNGLL,4851.31944,N,00319.08297,E,092603.00,A,A*75
$GNRMC,092604.00,A,4851.31947,N,00319.08294,E,0.050,,100317,,,A*6A
$GNVTG,,T,,M,0.050,N,0.092,K,A*33
$GNGGA,092604.00,4851.31947,N,00319.08294,E,1,08,1.60,99.7,M,46.4,M,,*79
$GNGSA,A,3,02,05,13,20,30,07,,,,,,,2.65,1.60,2.11*1B
$GNGSA,A,3,68,67,,,,,,,,,,,2.65,1.60,2.11*17
$GPGSV,2,1,08,02,27,233,45,05,60,292,47,06,07,195,,07,56,064,37*71
$GPGSV,2,2,08,13,24,268,40,20,11,312,31,28,11,149,21,30,70,168,44*73
$GLGSV,1,1,03,66,46,108,23,67,70,339,39,68,18,308,31*57
$GNGLL,4851.31947,N,00319.08294,E,092604.00,A,A*72
$GNRMC,092605.00,A,4851.31949,N,00319.08294,E,0.047,,100317,,,A*63
$GNVTG,,T,,M,0.047,N,0.088,K,A*3E
$GNGGA,092605.00,4851.31949,N,00319.08294,E,1,08,1.60,99.8,M,46.4,M,,*79
$GNGSA,A,3,02,05,13,20,30,07,,,,,,,2.65,1.60,2.11*1B
$GNGSA,A,3,68,67,,,,,,,,,,,2.65,1.60,2.11*17
$GPGSV,2,1,08,02,27,233,45,05,60,292,47,06,07,195,,07,56,064,37*71
$GPGSV,2,2,08,13,24,268,40,20,11,312,31,28,11,149,21,30,70,168,44*73
$GLGSV,1,1,03,66,46,108,22,67,70,339,39,68,18,308,31*56
$GNGLL,4851.31949,N,00319.08294,E,092605.00,A,A*7D
$GNRMC,092606.00,A,4851.31951,N,00319.08295,E,0.049,,100317,,,A*66
$GNVTG,,T,,M,0.049,N,0.091,K,A*38
$GNGGA,092606.00,4851.31951,N,00319.08295,E,1,08,1.60,99.8,M,46.4,M,,*72
$GNGSA,A,3,02,05,13,20,30,07,,,,,,,2.65,1.60,2.11*1B
$GNGSA,A,3,68,67,,,,,,,,,,,2.65,1.60,2.11*17
$GPGSV,2,1,08,02,27,233,45,05,60,292,47,06,07,195,,07,56,064,37*71
$GPGSV,2,2,08,13,24,268,40,20,11,312,30,28,11,149,22,30,70,168,44*71
$GLGSV,1,1,03,66,46,108,22,67,70,339,39,68,18,308,31*56
$GNGLL,4851.31951,N,00319.08295,E,092606.00,A,A*76
$GNRMC,092607.00,A,4851.31954,N,00319.08298,E,0.029,,100317,,,A*69
$GNVTG,,T,,M,0.029,N,0.054,K,A*37
$GNGGA,092607.00,4851.31954,N,00319.08298,E,1,08,1.60,99.7,M,46.4,M,,*74
$GNGSA,A,3,02,05,13,20,30,07,,,,,,,2.65,1.60,2.11*1B
$GNGSA,A,3,68,67,,,,,,,,,,,2.65,1.60,2.11*17
$GPGSV,2,1,08,02,27,233,45,05,60,292,47,06,07,195,,07,56,064,36*70
$GPGSV,2,2,08,13,24,268,40,20,11,312,30,28,11,149,21,30,70,168,44*72
$GLGSV,1,1,03,66,46,108,21,67,70,339,39,68,18,308,31*55
$GNGLL,4851.31954,N,00319.08298,E,092607.00,A,A*7F
$GNRMC,092608.00,A,4851.31955,N,00319.08300,E,0.016,,100317,,,A*6B
$GNVTG,,T,,M,0.016,N,0.029,K,A*31
$GNGGA,092608.00,4851.31955,N,00319.08300,E,1,08,1.60,99.7,M,46.4,M,,*7A
$GNGSA,A,3,02,05,13,20,30,07,,,,,,,2.65,1.60,2.11*1B
$GNGSA,A,3,68,67,,,,,,,,,,,2.65,1.60,2.11*17
$GPGSV,2,1,08,02,27,233,45,05,60,292,48,06,07,195,,07,56,064,37*7E
$GPGSV,2,2,08,13,24,268,40,20,11,312,30,28,11,149,21,30,70,168,44*72
$GLGSV,1,1,03,66,46,108,21,67,70,339,39,68,18,308,31*55
$GNGLL,4851.31955,N,00319.08300,E,092608.00,A,A*71
$GNRMC,092609.00,A,4851.31956,N,00319.08305,E,0.025,,100317,,,A*6C
$GNVTG,,T,,M,0.025,N,0.046,K,A*38
$GNGGA,092609.00,4851.31956,N,00319.08305,E,1,08,1.60,99.7,M,46.4,M,,*7D
$GNGSA,A,3,02,05,13,20,30,07,,,,,,,2.65,1.60,2.11*1B
$GNGSA,A,3,68,67,,,,,,,,,,,2.65,1.60,2.11*17
$GPGSV,2,1,08,02,27,233,45,05,60,292,48,06,07,195,,07,56,064,36*7F
$GPGSV,2,2,08,13,24,268,40,20,11,312,31,28,11,149,21,30,70,168,44*73
$GLGSV,1,1,03,66,46,108,21,67,70,339,39,68,18,308,31*55
$GNGLL,4851.31956,N,00319.08305,E,092609.00,A,A*76
$GNRMC,092610.00,A,4851.31957,N,00319.08307,E,0.026,,100317,,,A*64
$GNVTG,,T,,M,0.026,N,0.048,K,A*35
$GNGGA,092610.00,4851.31957,N,00319.08307,E,1,08,1.60,99.7,M,46.4,M,,*76
$GNGSA,A,3,02,05,13,20,30,07,,,,,,,2.65,1.60,2.11*1B
$GNGSA,A,3,68,67,,,,,,,,,,,2.65,1.60,2.11*17
$GPGSV,2,1,08,02,27,233,45,05,60,292,48,06,07,195,,07,56,064,36*7F
$GPGSV,2,2,08,13,24,268,40,20,11,312,30,28,11,149,20,30,70,168,44*73
$GLGSV,1,1,03,66,46,108,20,67,70,339,39,68,18,308,31*54
$GNGLL,4851.31957,N,00319.08307,E,092610.00,A,A*7D
$GNRMC,092611.00,A,4851.31960,N,00319.08309,E,0.047,,100317,,,A*68
$GNVTG,,T,,M,0.047,N,0.088,K,A*3E
$GNGGA,092611.00,4851.31960,N,00319.08309,E,1,08,1.60,99.7,M,46.4,M,,*7D
$GNGSA,A,3,02,05,13,20,30,07,,,,,,,2.65,1.60,2.11*1B
$GNGSA,A,3,68,67,,,,,,,,,,,2.65,1.60,2.11*17
$GPGSV,2,1,08,02,27,233,45,05,60,292,48,06,07,195,,07,56,064,36*7F
$GPGSV,2,2,08,13,24,268,40,20,11,312,30,28,11,149,21,30,70,168,44*72
$GLGSV,1,1,03,66,46,108,20,67,70,339,38,68,18,308,31*55
$GNGLL,4851.31960,N,00319.08309,E,092611.00,A,A*76
$GNRMC,092612.00,A,4851.31963,N,00319.08310,E,0.039,,100317,,,A*69
$GNVTG,,T,,M,0.039,N,0.073,K,A*33
$GNGGA,092612.00,4851.31963,N,00319.08310,E,1,08,1.60,99.7,M,46.4,M,,*75
$GNGSA,A,3,02,05,13,20,30,07,,,,,,,2.65,1.60,2.11*1B
$GNGSA,A,3,68,67,,,,,,,,,,,2.65,1.60,2.11*17
$GPGSV,2,1,08,02,27,233,45,05,60,292,47,06,07,195,,07,56,064,36*70
$GPGSV,2,2,08,13,24,268,40,20,11,312,30,28,11,149,20,30,70,168,44*73
$GLGSV,1,1,03,66,46,108,19,67,70,339,39,68,18,308,31*5E
$GNGLL,4851.31963,N,00319.08310,E,092612.00,A,A*7E
$GNRMC,092613.00,A,4851.31966,N,00319.08311,E,0.059,,100317,,,A*6A
$GNVTG,,T,,M,0.059,N,0.108,K,A*38
$GNGGA,092613.00,4851.31966,N,00319.08311,E,1,08,1.60,99.6,M,46.4,M,,*71
$GNGSA,A,3,02,05,13,20,30,07,,,,,,,2.65,1.60,2.11*1B
$GNGSA,A,3,68,67,,,,,,,,,,,2.65,1.60,2.11*17
$GPGSV,2,1,08,02,27,233,45,05,60,292,47,06,07,195,,07,56,064,35*73
$GPGSV,2,2,08,13,24,268,40,20,11,312,30,28,11,149,20,30,70,168,44*73
$GLGSV,1,1,03,66,46,108,19,67,70,339,39,68,18,308,31*5E
$GNGLL,4851.31966,N,00319.08311,E,092613.00,A,A*7B
$GNRMC,092614.00,A,4851.31969,N,00319.08312,E,0.028,,100317,,,A*67
$GNVTG,,T,,M,0.028,N,0.053,K,A*31
$GNGGA,092614.00,4851.31969,N,00319.08312,E,1,08,1.59,99.6,M,46.4,M,,*70
$GNGSA,A,3,02,05,13,20,30,07,,,,,,,2.65,1.59,2.11*11
$GNGSA,A,3,68,67,,,,,,,,,,,2.65,1.59,2.11*1D
$GPGSV,2,1,08,02,27,233,45,05,60,292,47,06,07,195,,07,56,064,35*73
$GPGSV,2,2,08,13,24,268,40,20,11,312,30,28,11,149,20,30,70,168,44*73
$GLGSV,1,1,04,66,46,108,19,67,70,339,39,68,18,308,31,75,06,027,*68
$GNGLL,4851.31969,N,00319.08312,E,092614.00,A,A*70
$GNRMC,092615.00,A,4851.31974,N,00319.08312,E,0.016,,100317,,,A*67
$GNVTG,,T,,M,0.016,N,0.029,K,A*31
$GNGGA,092615.00,4851.31974,N,00319.08312,E,1,08,1.59,99.6,M,46.4,M,,*7D
$GNGSA,A,3,02,05,13,20,30,07,,,,,,,2.65,1.59,2.11*11
$GNGSA,A,3,68,67,,,,,,,,,,,2.65,1.59,2.11*1D
$GPGSV,2,1,08,02,27,233,45,05,60,292,47,06,07,195,,07,56,064,35*73
$GPGSV,2,2,08,13,24,268,40,20,11,312,30,28,11,149,20,30,70,168,44*73
$GLGSV,1,1,04,66,46,108,17,67,70,339,39,68,18,308,31,75,06,027,*66
$GNGLL,4851.31974,N,00319.08312,E,092615.00,A,A*7D
$GNRMC,092616.00,A,4851.31977,N,00319.08312,E,0.036,,100317,,,A*65
$GNVTG,,T,,M,0.036,N,0.067,K,A*39
$GNGGA,092616.00,4851.31977,N,00319.08312,E,1,08,1.59,99.6,M,46.4,M,,*7D
$GNGSA,A,3,02,05,13,20,30,07,,,,,,,2.65,1.59,2.11*11
$GNGSA,A,3,68,67,,,,,,,,,,,2.65,1.59,2.11*1D
$GPGSV,2,1,08,02,27,233,45,05,60,292,47,06,07,195,,07,56,064,35*73
$GPGSV,2,2,08,13,24,268,40,20,11,312,30,28,11,149,18,30,70,168,44*78
$GLGSV,1,1,04,66,46,108,18,67,70,339,39,68,18,308,31,75,06,027,21*6A
$GNGLL,4851.31977,N,00319.08312,E,092616.00,A,A*7D
$GNRMC,092617.00,A,4851.31979,N,00319.08312,E,0.029,,100317,,,A*64
$GNVTG,,T,,M,0.029,N,0.053,K,A*30
$GNGGA,092617.00,4851.31979,N,00319.08312,E,1,08,1.59,99.7,M,46.4,M,,*73
$GNGSA,A,3,02,05,13,20,30,07,,,,,,,2.65,1.59,2.11*11
$GNGSA,A,3,68,67,,,,,,,,,,,2.65,1.59,2.11*1D
$GPGSV,2,1,08,02,27,233,45,05,60,292,47,06,07,195,,07,56,064,35*73
$GPGSV,2,2,08,13,24,268,40,20,11,312,30,28,11,149,20,30,70,168,44*73
$GLGSV,1,1,04,66,46,108,18,67,70,339,39,68,18,308,31,75,06,027,21*6A
$GNGLL,4851.31979,N,00319.08312,E,092617.00,A,A*72
$GNRMC,092618.00,A,4851.31983,N,00319.08312,E,0.033,,100317,,,A*65
$GNVTG,,T,,M,0.033,N,0.062,K,A*39
$GNGGA,092618.00,4851.31983,N,00319.08312,E,1,08,1.59,99.7,M,46.4,M,,*79
$GNGSA,A,3,02,05,13,20,30,07,,,,,,,2.65,1.59,2.11*11
$GNGSA,A,3,68,67,,,,,,,,,,,2.65,1.59,2.11*1D
$GPGSV,2,1,08,02,27,233,45,05,60,292,47,06,07,195,,07,56,064,35*73
$GPGSV,2,2,08,13,24,268,40,20,11,312,30,28,11,149,20,30,70,168,44*73
$GLGSV,2,1,05,66,46,108,18,67,70,339,38,68,18,308,31,75,06,027,21*69
$GLGSV,2,2,05,76,52,050,*53
$GNGLL,4851.31983,N,00319.08312,E,092618.00,A,A*78
$GNRMC,092619.00,A,4851.31987,N,00319.08314,E,0.021,,100317,,,A*65
$GNVTG,,T,,M,0.021,N,0.039,K,A*34
$GNGGA,092619.00,4851.31987,N,00319.08314,E,1,08,1.59,99.6,M,46.4,M,,*7B
$GNGSA,A,3,02,05,13,20,30,07,,,,,,,2.65,1.59,2.11*11
$GNGSA,A,3,68,67,,,,,,,,,,,2.65,1.59,2.11*1D
$GPGSV,2,1,08,02,27,233,45,05,60,292,48,06,07,195,,07,56,064,35*7C
$GPGSV,2,2,08,13,24,268,40,20,11,312,30,28,11,149,20,30,70,168,44*73
$GLGSV,2,1,05,66,46,108,18,67,70,339,38,68,18,308,31,75,06,027,21*69
$GLGSV,2,2,05,76,52,050,26*57
$GNGLL,4851.31987,N,00319.08314,E,092619.00,A,A*7B
$GNRMC,092620.00,A,4851.31990,N,00319.08314,E,0.021,,100317,,,A*69
$GNVTG,,T,,M,0.021,N,0.039,K,A*34
$GNGGA,092620.00,4851.31990,N,00319.08314,E,1,08,1.59,99.6,M,46.4,M,,*77
$GNGSA,A,3,02,05,13,20,30,07,,,,,,,2.65,1.59,2.11*11
$GNGSA,A,3,68,67,,,,,,,,,,,2.65,1.59,2.11*1D
$GPGSV,2,1,08,02,27,233,45,05,60,292,48,06,07,195,,07,56,064,35*7C
$GPGSV,2,2,08,13,24,268,40,20,11,312,30,28,11,149,21,30,70,168,44*72
$GLGSV,2,1,05,66,46,108,19,67,70,339,39,68,18,308,31,75,06,027,21*69
$GLGSV,2,2,05,76,52,050,26*57
$GNGLL,4851.31990,N,00319.08314,E,092620.00,A,A*77
$GNRMC,092621.00,A,4851.31992,N,00319.08316,E,0.002,,100317,,,A*69
$GNVTG,,T,,M,0.002,N,0.004,K,A*3B
$GNGGA,092621.00,4851.31992,N,00319.08316,E,1,08,1.59,99.6,M,46.4,M,,*76
$GNGSA,A,3,02,05,13,20,30,07,,,,,,,2.65,1.59,2.11*11
$GNGSA,A,3,68,67,,,,,,,,,,,2.65,1.59,2.11*1D
$GPGSV,2,1,08,02,27,233,45,05,60,292,48,06,07,195,,07,56,064,35*7C
$GPGSV,2,2,08,13,25,268,40,20,11,312,30,28,11,149,21,30,70,168,44*73
$GLGSV,2,1,05,66,46,108,19,67,70,339,39,68,18,308,31,75,06,027,22*6A
$GLGSV,2,2,05,76,52,050,26*57
$GNGLL,4851.31992,N,00319.08316,E,092621.00,A,A*76
$GNRMC,092622.00,A,4851.31994,N,00319.08317,E,0.023,,100317,,,A*6E
$GNVTG,,T,,M,0.023,N,0.043,K,A*3B
$GNGGA,092622.00,4851.31994,N,00319.08317,E,1,08,1.59,99.6,M,46.4,M,,*72
$GNGSA,A,3,02,05,13,20,30,07,,,,,,,2.65,1.59,2.11*11
$GNGSA,A,3,68,67,,,,,,,,,,,2.65,1.59,2.11*1D
$GPGSV,3,1,09,02,27,233,45,05,60,292,48,06,07,195,,07,56,064,35*7C
$GPGSV,3,2,09,13,25,268,40,20,11,312,30,27,,,35,28,11,149,20*4A
$GPGSV,3,3,09,30,70,168,44*4B
$GLGSV,2,1,06,66,46,108,20,67,70,339,39,68,18,308,31,75,06,027,22*63
$GLGSV,2,2,06,76,52,050,26,77,54,170,*63
$GNGLL,4851.31994,N,00319.08317,E,092622.00,A,A*72
$GNRMC,092623.00,A,4851.31996,N,00319.08318,E,0.030,,100317,,,A*60
$GNVTG,,T,,M,0.030,N,0.056,K,A*3D
$GNGGA,092623.00,4851.31996,N,00319.08318,E,1,08,1.59,99.6,M,46.4,M,,*7E
$GNGSA,A,3,02,05,13,20,30,07,,,,,,,2.65,1.59,2.11*11
$GNGSA,A,3,68,67,,,,,,,,,,,2.65,1.59,2.11*1D
$GPGSV,2,1,08,02,27,233,45,05,60,292,48,06,07,195,,07,56,064,34*7D
$GPGSV,2,2,08,13,25,268,40,20,11,312,30,28,11,149,20,30,70,168,44*72
$GLGSV,2,1,06,66,46,108,20,67,70,339,39,68,18,308,31,75,06,027,22*63
$GLGSV,2,2,06,76,52,050,27,77,54,170,24*64
